[{"name":"O Loft Chinois","address":"4G39+2J7, Antananarivo, Madagascar","contact":"Contact non disponible","coordinates":{"lat":-18.8974503,"lng":47.5190589}},{"name":"La Fleur De Sel","address":"Antananarivo, Madagascar","contact":"+261 34 12 582 22","coordinates":{"lat":-18.8715948,"lng":47.5426065}},{"name":"Restaurant L'EURASIE - Ankorondrano","address":"Face à l'hôtel Ibis - Ankorondrano, Antananarivo 101, Madagascar","contact":"+261 38 51 944 37","coordinates":{"lat":-18.878854999999998,"lng":47.521268299999996}},{"name":"Grand Resto de Chine","address":"Lalana Rasamuol Maurice, Antananarivo, Madagascar","contact":"+261 33 83 594 63","coordinates":{"lat":-18.9141849,"lng":47.5384142}},{"name":"Restaurant Fong Mei","address":"4GHM+JMX, Rue Andriantsihoarana Ratsimbazafy, Antananarivo, Madagascar","contact":"+261 33 25 571 99","coordinates":{"lat":-18.870893799999997,"lng":47.5342498}},{"name":"Dun Huang","address":"42 Arabe Andrinampoinimerina, Antananarivo 101, Madagascar","contact":"Contact non disponible","coordinates":{"lat":-18.905614,"lng":47.524070699999996}},{"name":"Le Grand Orient","address":"Rue Andriantsihoarana Ratsimbazafy, Antananarivo 101, Madagascar","contact":"+261 20 22 202 88","coordinates":{"lat":-18.8698272,"lng":47.5317034}},{"name":"l'Orient Asian Fusion Restaurant","address":"Madagascar, Antananarivo, Lalana Rainandriamampandry, 邮政编码: 101","contact":"+261 34 36 788 88","coordinates":{"lat":-18.907249399999998,"lng":47.5280373}},{"name":"Hirondelle \"燕子\" Chinese FOOD","address":"Lalana Dama-Ntsoha Razatintsalama Jean-Baptiste, Antananarivo 101, Madagascar","contact":"+261 34 11 166 78","coordinates":{"lat":-18.9174137,"lng":47.5366284}},{"name":"Zen Garden","address":"II M 38 F Androhibe Antananarivo Antananarivo, 101, Madagascar","contact":"+261 32 05 135 03","coordinates":{"lat":-18.865723499999998,"lng":47.5428709}},{"name":"凤城 Soleil","address":"Lot IVK 89 bis Anosivavaka Ambohimanarina, Antananarivo 101, Madagascar","contact":"+261 33 11 336 28","coordinates":{"lat":-18.8729457,"lng":47.507969499999994}},{"name":"Kaizen Restaurant","address":"3GPR+F3J, Lalana Vvs, Antananarivo, Madagascar","contact":"Contact non disponible","coordinates":{"lat":-18.9137837,"lng":47.5401532}},{"name":"La Jonquille","address":"Antananarivo 101, Madagascar","contact":"+261 20 22 206 37","coordinates":{"lat":-18.909325799999998,"lng":47.536889599999995}},{"name":"HONG KONG Restaurant - salon de The","address":"Toyota, Lalana Doktera. Joseph Raseta, Maibahoaka Ivato Antananarivo IVATO, Antananarivo 105, Madagascar","contact":"+261 38 68 509 77","coordinates":{"lat":-18.830986199999998,"lng":47.465352599999996}},{"name":"吕府私房菜（KTV）","address":"Madagascar, Antananarivo, AUTOREX, Amitie Fandian","contact":"+261 38 82 066 66","coordinates":{"lat":-18.910683199999998,"lng":47.503318}},{"name":"Restaurant La Belle Ville","address":"3GQP+WJP, Rue Razafindralombo Pierre, Antananarivo, Madagascar","contact":"+261 34 03 244 36","coordinates":{"lat":-18.9101641,"lng":47.5365779}},{"name":"Restaurant Lai","address":"3GQ4+RWG, Antananarivo, Madagascar","contact":"+261 32 79 660 89","coordinates":{"lat":-18.9104281,"lng":47.5073277}},{"name":"Dragon Royal Restaurant IVATO","address":"5FQF+WHH, Antananarivo, Madagascar","contact":"+261 38 12 579 79","coordinates":{"lat":-18.8101926,"lng":47.4739989}},{"name":"Restaurant Le Cantilène","address":"3GQ4+RWM, Antananarivo, Madagascar","contact":"+261 34 86 576 67","coordinates":{"lat":-18.9104223,"lng":47.507293499999996}},{"name":"Lotus Blanc Restaurant 荷花酒店","address":"LOT II W 23 B, Antananarivo 101, Madagascar","contact":"Contact non disponible","coordinates":{"lat":-18.9134037,"lng":47.537774399999996}}]