[{"title":"l'Orient Asian Fusion Restaurant","price":null,"categoryName":"Pan-Asian restaurant","address":"Madagascar, Antananarivo, Lalana Rainandriamampandry, 邮政编码: 101","neighborhood":"Soarano","street":"Lalana Rainandriamampandry","city":"Antananarivo","postalCode":"101","state":null,"countryCode":"MG","phone":"+261 34 36 788 88","phoneUnformatted":"+261343678888","claimThisBusiness":false,"location":{"lat":-18.9072494,"lng":47.5280373},"totalScore":5,"permanentlyClosed":false,"temporarilyClosed":false,"placeId":"ChIJNfQ9qFB98CERcfcYJSjgQ4Q","categories":["Pan-Asian restaurant"],"fid":"0x21f07d50a83df435:0x8443e0282518f771","cid":"9530707699471808369","reviewsCount":60,"imagesCount":109,"imageCategories":[],"scrapedAt":"2025-05-08T04:05:24.131Z","googleFoodUrl":null,"hotelAds":[],"openingHours":[{"day":"Monday","hours":"12 to 2:30 PM, 6 to 9 PM"},{"day":"Tuesday","hours":"12 to 2:30 PM, 6 to 9 PM"},{"day":"Wednesday","hours":"12 to 2:30 PM, 6 to 9 PM"},{"day":"Thursday","hours":"12 to 2:30 PM, 6 to 9 PM"},{"day":"Friday","hours":"12 to 2:30 PM, 6 to 9 PM"},{"day":"Saturday","hours":"12 to 2:30 PM, 6 to 9 PM"},{"day":"Sunday","hours":"Closed"}],"peopleAlsoSearch":[],"placesTags":[],"reviewsTags":[],"additionalInfo":{"From the business":[{"Identifies as women-owned":true}],"Service options":[{"Dine-in":true}],"Highlights":[{"Great coffee":true},{"Great dessert":true},{"Live music":true},{"Sports":true}],"Popular for":[{"Lunch":true},{"Dinner":true},{"Solo dining":true}],"Offerings":[{"Coffee":true},{"Organic dishes":true},{"Salad bar":true},{"Small plates":true}],"Dining options":[{"Lunch":true},{"Dinner":true},{"Catering":true},{"Counter service":true},{"Dessert":true},{"Seating":true}],"Amenities":[{"Gender-neutral restroom":true},{"Restroom":true},{"Wi-Fi":true},{"Free Wi-Fi":true}],"Atmosphere":[{"Casual":true},{"Cozy":true}],"Crowd":[{"Family-friendly":true},{"Groups":true},{"LGBTQ+ friendly":true},{"Tourists":true}],"Planning":[{"Accepts reservations":true}],"Payments":[{"Cash-only":true},{"Checks":true},{"NFC mobile payments":true}],"Children":[{"Good for kids":true},{"High chairs":true}]},"gasPrices":[],"url":"https://www.google.com/maps/search/?api=1&query=l'Orient%20Asian%20Fusion%20Restaurant&query_place_id=ChIJNfQ9qFB98CERcfcYJSjgQ4Q","searchPageUrl":"https://www.google.com/maps/search/restaurant%20chinois%20/@-18.950667688280813,47.51698360632788,16z?hl=en","searchString":"restaurant chinois ","language":"en","rank":1,"isAdvertisement":false,"imageUrl":"https://lh3.googleusercontent.com/p/AF1QipMEtu4ta7YgG-CL3VT7miGqijPe1Too2f9jrSaP=w408-h305-k-no","kgmid":"/g/11fl950xnm"},{"title":"吕府私房菜（KTV）","price":null,"categoryName":"Chinese restaurant","address":"Madagascar, Antananarivo, AUTOREXAmitie Fandian","neighborhood":null,"street":"AUTOREXAmitie Fandian","city":"Antananarivo","postalCode":null,"state":null,"countryCode":"MG","phone":"+261 38 82 066 66","phoneUnformatted":"+261388206666","claimThisBusiness":false,"location":{"lat":-18.9106832,"lng":47.503318},"totalScore":5,"permanentlyClosed":false,"temporarilyClosed":false,"placeId":"ChIJb2tHOgB_8CERTwgPT6eQfBY","categories":["Chinese restaurant"],"fid":"0x21f07f003a476b6f:0x167c90a74f0f084f","cid":"1620329014206859343","reviewsCount":1,"imagesCount":86,"imageCategories":[],"scrapedAt":"2025-05-08T04:05:24.143Z","googleFoodUrl":null,"hotelAds":[],"openingHours":[{"day":"Monday","hours":"11 AM to 10 PM"},{"day":"Tuesday","hours":"11 AM to 10 PM"},{"day":"Wednesday","hours":"11 AM to 10 PM"},{"day":"Thursday","hours":"11 AM to 10 PM"},{"day":"Friday","hours":"11 AM to 10 PM"},{"day":"Saturday","hours":"11 AM to 10 PM"},{"day":"Sunday","hours":"11 AM to 10 PM"}],"peopleAlsoSearch":[],"placesTags":[],"reviewsTags":[],"additionalInfo":{"Service options":[{"Dine-in":true}],"Popular for":[{"Solo dining":true}],"Offerings":[{"Alcohol":true},{"Beer":true},{"Coffee":true},{"Small plates":true}],"Dining options":[{"Catering":true}],"Amenities":[{"Restroom":true}],"Atmosphere":[{"Casual":true},{"Cozy":true},{"Trendy":true}],"Crowd":[{"College students":true},{"Groups":true},{"Tourists":true}],"Planning":[{"Accepts reservations":true}],"Children":[{"Good for kids":true}],"Parking":[{"Free parking lot":true}]},"gasPrices":[],"url":"https://www.google.com/maps/search/?api=1&query=%E5%90%95%E5%BA%9C%E7%A7%81%E6%88%BF%E8%8F%9C%EF%BC%88KTV%EF%BC%89&query_place_id=ChIJb2tHOgB_8CERTwgPT6eQfBY","searchPageUrl":"https://www.google.com/maps/search/restaurant%20chinois%20/@-18.950667688280813,47.51698360632788,16z?hl=en","searchString":"restaurant chinois ","language":"en","rank":2,"isAdvertisement":false,"imageUrl":"https://lh3.googleusercontent.com/p/AF1QipNyumGetbB9L7u7W7fdJuhKtlhEOXZqjDJAaXtd=w408-h248-k-no","kgmid":"/g/11w9r45wy2"},{"title":"Lotus Blanc Restaurant 荷花酒店","price":null,"categoryName":"Chinese restaurant","address":"LOT II W 23 B, Antananarivo 101, Madagascar","neighborhood":null,"street":"LOT II W 23 B","city":"Antananarivo","postalCode":"101","state":null,"countryCode":"MG","claimThisBusiness":true,"location":{"lat":-18.9134037,"lng":47.5377744},"totalScore":4.7,"permanentlyClosed":false,"temporarilyClosed":false,"placeId":"ChIJQzFS67d98CERuQDS4kHmhiA","categories":["Chinese restaurant"],"fid":"0x21f07db7eb523143:0x2086e641e2d200b9","cid":"2343813826745598137","reviewsCount":3,"imagesCount":16,"imageCategories":[],"scrapedAt":"2025-05-08T04:05:24.143Z","googleFoodUrl":null,"hotelAds":[],"openingHours":[],"peopleAlsoSearch":[],"placesTags":[],"reviewsTags":[],"additionalInfo":{"Service options":[{"Takeout":true},{"Dine-in":true}],"Highlights":[{"Great coffee":true}],"Popular for":[{"Solo dining":true}],"Offerings":[{"Coffee":true},{"Small plates":true}],"Dining options":[{"Lunch":true},{"Dinner":true},{"Dessert":true}],"Amenities":[{"Restroom":true}],"Atmosphere":[{"Casual":true},{"Cozy":true}],"Crowd":[{"Groups":true},{"Tourists":true}],"Planning":[{"Accepts reservations":true}],"Children":[{"Good for kids":true}]},"gasPrices":[],"url":"https://www.google.com/maps/search/?api=1&query=Lotus%20Blanc%20Restaurant%20%E8%8D%B7%E8%8A%B1%E9%85%92%E5%BA%97&query_place_id=ChIJQzFS67d98CERuQDS4kHmhiA","searchPageUrl":"https://www.google.com/maps/search/restaurant%20chinois%20/@-18.950667688280813,47.51698360632788,16z?hl=en","searchString":"restaurant chinois ","language":"en","rank":3,"isAdvertisement":false,"imageUrl":"https://lh3.googleusercontent.com/p/AF1QipM8NDE-zVjI5XzZluG0roZbgxqkJDnGuLV5Zz1j=w408-h307-k-no","kgmid":"/g/11y20b6q0c"},{"title":"Grand Resto de Chine","price":null,"categoryName":"Asian restaurant","address":"Lalana Rasamuol Maurice, Antananarivo, Madagascar","neighborhood":"Soarano","street":"Lalana Rasamuol Maurice","city":"Antananarivo","postalCode":null,"state":null,"countryCode":"MG","phone":"+261 33 83 594 63","phoneUnformatted":"+261338359463","claimThisBusiness":false,"location":{"lat":-18.9141849,"lng":47.5384142},"totalScore":3.7,"permanentlyClosed":false,"temporarilyClosed":false,"placeId":"ChIJP-hvYPB98CERuS2siycr7Yo","categories":["Asian restaurant"],"fid":"0x21f07df0606fe83f:0x8aed2b278bac2db9","cid":"10010704995561516473","reviewsCount":29,"imagesCount":32,"imageCategories":[],"scrapedAt":"2025-05-08T04:05:24.143Z","googleFoodUrl":null,"hotelAds":[],"openingHours":[{"day":"Monday","hours":"Closed"},{"day":"Tuesday","hours":"10 AM to 2:30 PM, 5 to 9:30 PM"},{"day":"Wednesday","hours":"9:30 AM to 2:30 PM, 5 to 9:30 PM"},{"day":"Thursday","hours":"10 AM to 2:30 PM, 5 to 9:30 PM"},{"day":"Friday","hours":"10 AM to 2:30 PM, 5 to 9:30 PM"},{"day":"Saturday","hours":"10 AM to 2:30 PM, 5 to 9:30 PM"},{"day":"Sunday","hours":"10 AM to 2:30 PM, 5 to 9:30 PM"}],"peopleAlsoSearch":[],"placesTags":[],"reviewsTags":[],"additionalInfo":{"Service options":[{"Takeout":true},{"Dine-in":true}],"Highlights":[{"Great coffee":true},{"Great dessert":true}],"Popular for":[{"Lunch":true},{"Dinner":true},{"Solo dining":true}],"Accessibility":[{"Wheelchair accessible entrance":true},{"Wheelchair accessible parking lot":true}],"Offerings":[{"Alcohol":true},{"Beer":true},{"Cocktails":true},{"Coffee":true},{"Hard liquor":true},{"Small plates":true},{"Wine":true}],"Dining options":[{"Breakfast":true},{"Lunch":true},{"Dinner":true},{"Catering":true},{"Dessert":true}],"Amenities":[{"Restroom":true}],"Atmosphere":[{"Casual":true},{"Cozy":true},{"Quiet":true}],"Crowd":[{"Groups":true},{"Tourists":true}],"Planning":[{"Accepts reservations":true}],"Children":[{"Good for kids":true}],"Parking":[{"Free parking lot":true},{"Free street parking":true},null]},"gasPrices":[],"url":"https://www.google.com/maps/search/?api=1&query=Grand%20Resto%20de%20Chine&query_place_id=ChIJP-hvYPB98CERuS2siycr7Yo","searchPageUrl":"https://www.google.com/maps/search/restaurant%20chinois%20/@-18.950667688280813,47.51698360632788,16z?hl=en","searchString":"restaurant chinois ","language":"en","rank":4,"isAdvertisement":false,"imageUrl":"https://lh3.googleusercontent.com/p/AF1QipN7yiBNA30KEizkiXJxu3ZUeiYA7jnqdu52kJMZ=w426-h240-k-no","kgmid":"/g/11r89xv_r"},{"title":"Kaizen Restaurant","price":null,"categoryName":"Chinese restaurant","address":"3GPR+F3J, Lalana Vvs, Antananarivo, Madagascar","neighborhood":"Soarano","street":"3GPR+F3J, Lalana Vvs","city":"Antananarivo","postalCode":null,"state":null,"countryCode":"MG","claimThisBusiness":true,"location":{"lat":-18.9137837,"lng":47.5401532},"totalScore":4.6,"permanentlyClosed":false,"temporarilyClosed":false,"placeId":"ChIJdXLhdLV98CERAqW4P0i4Pgs","categories":["Chinese restaurant"],"fid":"0x21f07db574e17275:0xb3eb8483fb8a502","cid":"810287603419489538","reviewsCount":7,"imagesCount":10,"imageCategories":[],"scrapedAt":"2025-05-08T04:05:24.145Z","googleFoodUrl":null,"hotelAds":[],"openingHours":[{"day":"Monday","hours":"Closed"},{"day":"Tuesday","hours":"11 AM to 9 PM"},{"day":"Wednesday","hours":"11 AM to 9 PM"},{"day":"Thursday","hours":"11 AM to 9 PM"},{"day":"Friday","hours":"11 AM to 9 PM"},{"day":"Saturday","hours":"11 AM to 9 PM"},{"day":"Sunday","hours":"11 AM to 9 PM"}],"peopleAlsoSearch":[],"placesTags":[],"reviewsTags":[],"additionalInfo":{"Service options":[{"Takeout":true},{"Dine-in":true}],"Highlights":[{"Great coffee":true},{"Great dessert":true}],"Popular for":[{"Lunch":true},{"Dinner":true},{"Solo dining":true}],"Offerings":[{"Coffee":true},{"Small plates":true}],"Dining options":[{"Lunch":true},{"Dinner":true},{"Dessert":true}],"Amenities":[{"Restroom":true}],"Atmosphere":[{"Casual":true},{"Cozy":true}],"Crowd":[{"Groups":true},{"Tourists":true}],"Planning":[{"Accepts reservations":true}],"Children":[{"Good for kids":true}]},"gasPrices":[],"url":"https://www.google.com/maps/search/?api=1&query=Kaizen%20Restaurant&query_place_id=ChIJdXLhdLV98CERAqW4P0i4Pgs","searchPageUrl":"https://www.google.com/maps/search/restaurant%20chinois%20/@-18.950667688280813,47.51698360632788,16z?hl=en","searchString":"restaurant chinois ","language":"en","rank":5,"isAdvertisement":false,"imageUrl":"https://lh3.googleusercontent.com/p/AF1QipMrtCiULYA2k53ODcVl8NAt01ivcw87Pl4jj1wE=w408-h321-k-no","kgmid":"/g/11kq329d0j"},{"title":"Restaurant Le Cantilène","price":null,"categoryName":"Chinese restaurant","address":"3GQ4+RWM, Antananarivo, Madagascar","neighborhood":null,"street":"3GQ4+RWM","city":"Antananarivo","postalCode":null,"state":null,"countryCode":"MG","phone":"+261 34 86 576 67","phoneUnformatted":"+261348657667","claimThisBusiness":true,"location":{"lat":-18.9104223,"lng":47.5072935},"totalScore":5,"permanentlyClosed":false,"temporarilyClosed":false,"placeId":"ChIJA4Hbmj1-8CERTSo5mLZtV1Q","categories":["Chinese restaurant"],"fid":"0x21f07e3d9adb8103:0x54576db698392a4d","cid":"6077446853165132365","reviewsCount":2,"imagesCount":null,"imageCategories":[],"scrapedAt":"2025-05-08T04:05:24.145Z","googleFoodUrl":null,"hotelAds":[],"openingHours":[{"day":"Monday","hours":"10 AM to 9 PM"},{"day":"Tuesday","hours":"10 AM to 9 PM"},{"day":"Wednesday","hours":"10 AM to 9 PM"},{"day":"Thursday","hours":"10 AM to 9 PM"},{"day":"Friday","hours":"10 AM to 9 PM"},{"day":"Saturday","hours":"10 AM to 9 PM"},{"day":"Sunday","hours":"10 AM to 9 PM"}],"peopleAlsoSearch":[],"placesTags":[],"reviewsTags":[],"additionalInfo":{"Service options":[{"Takeout":true},{"Dine-in":true}],"Highlights":[{"Great coffee":true},{"Great dessert":true}],"Popular for":[{"Dinner":true},{"Solo dining":true}],"Offerings":[{"Alcohol":true},{"Beer":true},{"Coffee":true},{"Small plates":true}],"Dining options":[{"Lunch":true},{"Dinner":true},{"Dessert":true}],"Amenities":[{"Restroom":true}],"Atmosphere":[{"Cozy":true}],"Crowd":[{"Groups":true},{"Tourists":true}],"Children":[{"Good for kids":true}]},"gasPrices":[],"url":"https://www.google.com/maps/search/?api=1&query=Restaurant%20Le%20Cantil%C3%A8ne&query_place_id=ChIJA4Hbmj1-8CERTSo5mLZtV1Q","searchPageUrl":"https://www.google.com/maps/search/restaurant%20chinois%20/@-18.950667688280813,47.51698360632788,16z?hl=en","searchString":"restaurant chinois ","language":"en","rank":6,"isAdvertisement":false,"kgmid":"/g/11fx7r4cf8"},{"title":"Sam Voky","price":null,"categoryName":"Chinese restaurant","address":"3GP8+GGF, Antananarivo, Madagascar","neighborhood":null,"street":"3GP8+GGF","city":"Antananarivo","postalCode":null,"state":null,"countryCode":"MG","phone":"+261 34 18 685 38","phoneUnformatted":"+261341868538","claimThisBusiness":true,"location":{"lat":-18.9136965,"lng":47.5162832},"totalScore":4.4,"permanentlyClosed":false,"temporarilyClosed":false,"placeId":"ChIJkwSMlRF-8CEREewH_YDAGuA","categories":["Chinese restaurant"],"fid":"0x21f07e11958c0493:0xe01ac080fd07ec11","cid":"16148431074123836433","reviewsCount":5,"imagesCount":2,"imageCategories":[],"scrapedAt":"2025-05-08T04:05:24.145Z","googleFoodUrl":null,"hotelAds":[],"openingHours":[],"peopleAlsoSearch":[],"placesTags":[],"reviewsTags":[],"additionalInfo":{"Service options":[{"Takeout":true},{"Dine-in":true}],"Popular for":[{"Solo dining":true}],"Offerings":[{"Quick bite":true},{"Small plates":true}],"Dining options":[{"Lunch":true},{"Dinner":true},{"Catering":true},{"Dessert":true}],"Amenities":[{"Restroom":true}],"Atmosphere":[{"Casual":true},{"Cozy":true}],"Crowd":[{"College students":true},{"Groups":true},{"Tourists":true}],"Planning":[{"Accepts reservations":true}],"Children":[{"Good for kids":true}]},"gasPrices":[],"url":"https://www.google.com/maps/search/?api=1&query=Sam%20Voky&query_place_id=ChIJkwSMlRF-8CEREewH_YDAGuA","searchPageUrl":"https://www.google.com/maps/search/restaurant%20chinois%20/@-18.950667688280813,47.51698360632788,16z?hl=en","searchString":"restaurant chinois ","language":"en","rank":7,"isAdvertisement":false,"imageUrl":"https://lh3.googleusercontent.com/p/AF1QipPZoKauAqQTR48C_qojso2yxD3GWCJZjirXq69p=w408-h306-k-no","kgmid":"/g/11c535h5pt"},{"title":"吕府私房菜","price":null,"categoryName":"Chinese restaurant","address":"3GQ3+P78, Antananarivo, Madagascar","neighborhood":null,"street":"3GQ3+P78","city":"Antananarivo","postalCode":null,"state":null,"countryCode":"MG","claimThisBusiness":true,"location":{"lat":-18.9106979,"lng":47.5033164},"permanentlyClosed":false,"temporarilyClosed":false,"placeId":"ChIJKxUhBAB_8CERch_CFgZ4kyM","categories":["Chinese restaurant"],"fid":"0x21f07f000421152b:0x2393780616c21f72","cid":"2563524580450901874","reviewsCount":0,"imagesCount":null,"imageCategories":[],"scrapedAt":"2025-05-08T04:05:24.145Z","googleFoodUrl":null,"hotelAds":[],"openingHours":[],"peopleAlsoSearch":[],"placesTags":[],"reviewsTags":[],"gasPrices":[],"url":"https://www.google.com/maps/search/?api=1&query=%E5%90%95%E5%BA%9C%E7%A7%81%E6%88%BF%E8%8F%9C&query_place_id=ChIJKxUhBAB_8CERch_CFgZ4kyM","searchPageUrl":"https://www.google.com/maps/search/restaurant%20chinois%20/@-18.950667688280813,47.51698360632788,16z?hl=en","searchString":"restaurant chinois ","language":"en","rank":8,"isAdvertisement":false,"kgmid":"/g/11x72qkhhv"},{"title":"Wai Man","price":null,"categoryName":"Chinese restaurant","address":"3GW6+VMX Nord-Est-Coté parking, Antananarivo, Madagascar","neighborhood":null,"street":"3GW6+VMX Nord-Est-Coté parking","city":"Antananarivo","postalCode":null,"state":null,"countryCode":"MG","claimThisBusiness":true,"location":{"lat":-18.9027731,"lng":47.5117251},"totalScore":5,"permanentlyClosed":false,"temporarilyClosed":false,"placeId":"ChIJs6o7vbB_8CERmuDGHaflTYU","categories":["Chinese restaurant"],"fid":"0x21f07fb0bd3baab3:0x854de5a71dc6e09a","cid":"9605586086173008026","reviewsCount":2,"imagesCount":null,"imageCategories":[],"scrapedAt":"2025-05-08T04:05:24.145Z","googleFoodUrl":null,"hotelAds":[],"openingHours":[],"peopleAlsoSearch":[],"placesTags":[],"reviewsTags":[],"additionalInfo":{"Service options":[{"Takeout":true},{"Dine-in":true}],"Popular for":[{"Solo dining":true}],"Accessibility":[{"Wheelchair accessible restroom":true}],"Offerings":[{"Alcohol":true},{"Beer":true},{"Small plates":true},{"Wine":true}],"Dining options":[{"Breakfast":true},{"Lunch":true},{"Dinner":true},{"Catering":true},{"Dessert":true}],"Amenities":[{"Restroom":true}],"Atmosphere":[{"Cozy":true}],"Crowd":[{"Groups":true}],"Planning":[{"Accepts reservations":true}],"Children":[{"Good for kids":true}]},"gasPrices":[],"url":"https://www.google.com/maps/search/?api=1&query=Wai%20Man&query_place_id=ChIJs6o7vbB_8CERmuDGHaflTYU","searchPageUrl":"https://www.google.com/maps/search/restaurant%20chinois%20/@-18.950667688280813,47.51698360632788,16z?hl=en","searchString":"restaurant chinois ","language":"en","rank":9,"isAdvertisement":false,"kgmid":"/g/11tf3p6mkc"},{"title":"Dun Huang","price":null,"categoryName":"Chinese restaurant","address":"42 Arabe Andrinampoinimerina, Antananarivo 101, Madagascar","neighborhood":null,"street":"42 Arabe Andrinampoinimerina","city":"Antananarivo","postalCode":"101","state":null,"countryCode":"MG","claimThisBusiness":true,"location":{"lat":-18.905614,"lng":47.5240707},"totalScore":4.6,"permanentlyClosed":false,"temporarilyClosed":false,"placeId":"ChIJL9u1DQF-8CER-ksYN4pb4mQ","categories":["Chinese restaurant"],"fid":"0x21f07e010db5db2f:0x64e25b8a37184bfa","cid":"7269473397717355514","reviewsCount":20,"imagesCount":26,"imageCategories":[],"scrapedAt":"2025-05-08T04:05:24.147Z","googleFoodUrl":null,"hotelAds":[],"openingHours":[{"day":"Monday","hours":"8:45 AM to 9 PM"},{"day":"Tuesday","hours":"8:45 AM to 9 PM"},{"day":"Wednesday","hours":"8:45 AM to 9 PM"},{"day":"Thursday","hours":"8:45 AM to 9 PM"},{"day":"Friday","hours":"8:45 AM to 9 PM"},{"day":"Saturday","hours":"8:45 AM to 9 PM"},{"day":"Sunday","hours":"8:45 AM to 9 PM"}],"peopleAlsoSearch":[],"placesTags":[],"reviewsTags":[],"additionalInfo":{"Service options":[{"Takeout":true},{"Dine-in":true}],"Popular for":[{"Lunch":true},{"Dinner":true},{"Solo dining":true}],"Accessibility":[{"Wheelchair accessible entrance":false}],"Offerings":[{"Small plates":true}],"Dining options":[{"Lunch":true},{"Dinner":true},{"Catering":true}],"Amenities":[{"Restroom":true}],"Atmosphere":[{"Casual":true}],"Crowd":[{"Groups":true},{"Tourists":true}],"Planning":[{"Accepts reservations":true}],"Children":[{"Good for kids":true}]},"gasPrices":[],"url":"https://www.google.com/maps/search/?api=1&query=Dun%20Huang&query_place_id=ChIJL9u1DQF-8CER-ksYN4pb4mQ","searchPageUrl":"https://www.google.com/maps/search/restaurant%20chinois%20/@-18.950667688280813,47.51698360632788,16z?hl=en","searchString":"restaurant chinois ","language":"en","rank":11,"isAdvertisement":false,"imageUrl":"https://lh3.googleusercontent.com/p/AF1QipOrcLrnddjVPe8CMEGLkJqhV5o2dOq01yCnhGaf=w426-h240-k-no","kgmid":"/g/11r8flz6x"},{"title":"Laï tsock","price":null,"categoryName":"Asian restaurant","address":"3GQP+4JW, Rue Razafindralombo Pierre, Antananarivo, Madagascar","neighborhood":null,"street":"3GQP+4JW, Rue Razafindralombo Pierre","city":"Antananarivo","postalCode":null,"state":null,"countryCode":"MG","website":"https://www.facebook.com/Laitsock","phone":"+261 34 30 357 57","phoneUnformatted":"+261343035757","claimThisBusiness":true,"location":{"lat":-18.912186,"lng":47.5365843},"totalScore":5,"permanentlyClosed":false,"temporarilyClosed":false,"placeId":"ChIJnZ-8UkJ98CER_pE9hNm9SfU","categories":["Asian restaurant"],"fid":"0x21f07d4252bc9f9d:0xf549bdd9843d91fe","cid":"17674866954516402686","reviewsCount":8,"imagesCount":9,"imageCategories":[],"scrapedAt":"2025-05-08T04:05:24.148Z","googleFoodUrl":null,"hotelAds":[],"openingHours":[{"day":"Monday","hours":"Closed"},{"day":"Tuesday","hours":"11 AM to 3 PM, 5 to 9 PM"},{"day":"Wednesday","hours":"11 AM to 3 PM, 5 to 9 PM"},{"day":"Thursday","hours":"11 AM to 3 PM, 5 to 9 PM"},{"day":"Friday","hours":"11 AM to 3 PM, 5 to 9 PM"},{"day":"Saturday","hours":"11 AM to 3 PM, 5 to 9 PM"},{"day":"Sunday","hours":"5 to 9 PM"}],"peopleAlsoSearch":[],"placesTags":[],"reviewsTags":[],"additionalInfo":{"Service options":[{"Takeout":true},{"Dine-in":true}],"Highlights":[{"Great coffee":true},{"Great dessert":true}],"Popular for":[{"Lunch":true},{"Dinner":true},{"Solo dining":true}],"Offerings":[{"Coffee":true},{"Small plates":true}],"Dining options":[{"Lunch":true},{"Dinner":true},{"Dessert":true}],"Amenities":[{"Restroom":true}],"Atmosphere":[{"Casual":true},{"Cozy":true},{"Trendy":true}],"Crowd":[{"Groups":true},{"Tourists":true}],"Planning":[{"Accepts reservations":true}],"Children":[{"Good for kids":true}]},"gasPrices":[],"url":"https://www.google.com/maps/search/?api=1&query=La%C3%AF%20tsock&query_place_id=ChIJnZ-8UkJ98CER_pE9hNm9SfU","searchPageUrl":"https://www.google.com/maps/search/restaurant%20chinois%20/@-18.950667688280813,47.51698360632788,16z?hl=en","searchString":"restaurant chinois ","language":"en","rank":12,"isAdvertisement":false,"imageUrl":"https://lh3.googleusercontent.com/p/AF1QipNqYfvl6gfQXk2BonDJshKXTAUfF-P0tAcAD9qV=w426-h240-k-no","kgmid":"/g/11t6p_y3wv"},{"title":"O Loft Chinois","price":null,"categoryName":"Restaurant","address":"4G39+2J7, Antananarivo, Madagascar","neighborhood":null,"street":"4G39+2J7","city":"Antananarivo","postalCode":null,"state":null,"countryCode":"MG","claimThisBusiness":true,"location":{"lat":-18.8974503,"lng":47.5190589},"totalScore":4.2,"permanentlyClosed":false,"temporarilyClosed":false,"placeId":"ChIJZeg6x6iA8CERnwTWxnHzqoY","categories":["Restaurant"],"fid":"0x21f080a8c73ae865:0x86aaf371c6d6049f","cid":"9703836017115923615","reviewsCount":26,"imagesCount":35,"imageCategories":[],"scrapedAt":"2025-05-08T04:05:24.148Z","googleFoodUrl":null,"hotelAds":[],"openingHours":[{"day":"Monday","hours":"9 AM to 7 PM"},{"day":"Tuesday","hours":"9 AM to 7 PM"},{"day":"Wednesday","hours":"9 AM to 7 PM"},{"day":"Thursday","hours":"9 AM to 7 PM"},{"day":"Friday","hours":"9 AM to 7 PM"},{"day":"Saturday","hours":"9 AM to 7 PM"},{"day":"Sunday","hours":"Closed"}],"peopleAlsoSearch":[],"placesTags":[],"reviewsTags":[],"additionalInfo":{"Service options":[{"Takeout":true},{"Dine-in":true}],"Highlights":[{"Great coffee":true},{"Great dessert":true}],"Popular for":[{"Solo dining":true}],"Offerings":[{"Alcohol":true},{"Beer":true},{"Coffee":true},{"Hard liquor":true},{"Small plates":true},{"Wine":true}],"Dining options":[{"Lunch":true},{"Dinner":true},{"Catering":true},{"Dessert":true}],"Amenities":[{"Bar onsite":true},{"Restroom":true}],"Atmosphere":[{"Cozy":true}],"Crowd":[{"Groups":true},{"Tourists":true}],"Planning":[{"Accepts reservations":true}],"Children":[{"Good for kids":true}],"Parking":[{"Free parking lot":true},{"Free street parking":true}]},"gasPrices":[],"url":"https://www.google.com/maps/search/?api=1&query=O%20Loft%20Chinois&query_place_id=ChIJZeg6x6iA8CERnwTWxnHzqoY","searchPageUrl":"https://www.google.com/maps/search/restaurant%20chinois%20/@-18.950667688280813,47.51698360632788,16z?hl=en","searchString":"restaurant chinois ","language":"en","rank":13,"isAdvertisement":false,"imageUrl":"https://lh3.googleusercontent.com/p/AF1QipNHPeTD3gUVFTfRHfj-ncIHDw58513AyhFo_hRm=w408-h306-k-no","kgmid":"/g/11c58vd5tb"},{"title":"La voie du Rossignol","price":null,"categoryName":"Chinese restaurant","address":"3GXH+QVR, Antananarivo 101, Madagascar","neighborhood":"Soarano","street":"3GXH+QVR","city":"Antananarivo","postalCode":"101","state":null,"countryCode":"MG","claimThisBusiness":true,"location":{"lat":-18.9005125,"lng":47.5296406},"totalScore":5,"permanentlyClosed":false,"temporarilyClosed":false,"placeId":"ChIJVWRkLaiH8CERhGPjPhY26f8","categories":["Chinese restaurant"],"fid":"0x21f087a82d646455:0xffe936163ee36384","cid":"18440329618417476484","reviewsCount":1,"imagesCount":null,"imageCategories":[],"scrapedAt":"2025-05-08T04:05:24.148Z","googleFoodUrl":null,"hotelAds":[],"openingHours":[],"peopleAlsoSearch":[],"placesTags":[],"reviewsTags":[],"additionalInfo":{"Service options":[{"Takeout":true},{"Dine-in":true}],"Offerings":[{"Small plates":true}],"Dining options":[{"Dinner":true}],"Amenities":[{"Restroom":true}],"Atmosphere":[{"Cozy":true}],"Crowd":[{"Groups":true}],"Children":[{"Good for kids":true}]},"gasPrices":[],"url":"https://www.google.com/maps/search/?api=1&query=La%20voie%20du%20Rossignol&query_place_id=ChIJVWRkLaiH8CERhGPjPhY26f8","searchPageUrl":"https://www.google.com/maps/search/restaurant%20chinois%20/@-18.950667688280813,47.51698360632788,16z?hl=en","searchString":"restaurant chinois ","language":"en","rank":14,"isAdvertisement":false,"kgmid":"/g/11vd894c73"},{"title":"TSANG-KAU","price":null,"categoryName":"Chinese restaurant","address":"3GQC+R2Q, Arabe Victoire Rasoamanarivo, Antananarivo, Madagascar","neighborhood":null,"street":"3GQC+R2Q, Arabe Victoire Rasoamanarivo","city":"Antananarivo","postalCode":null,"state":null,"countryCode":"MG","claimThisBusiness":true,"location":{"lat":-18.9104137,"lng":47.5201174},"totalScore":4,"permanentlyClosed":false,"temporarilyClosed":false,"placeId":"ChIJ2buSPAB_8CER0hTeod88CUk","categories":["Chinese restaurant"],"fid":"0x21f07f003c92bbd9:0x49093cdfa1de14d2","cid":"5262804570750194898","reviewsCount":1,"imagesCount":4,"imageCategories":[],"scrapedAt":"2025-05-08T04:05:24.148Z","googleFoodUrl":null,"hotelAds":[],"openingHours":[],"peopleAlsoSearch":[],"placesTags":[],"reviewsTags":[],"additionalInfo":{"Service options":[{"Dine-in":true}],"Popular for":[{"Solo dining":true}],"Offerings":[{"Small plates":true}],"Amenities":[{"Restroom":true}],"Atmosphere":[{"Casual":true},{"Cozy":true}],"Crowd":[{"Groups":true},{"Tourists":true}],"Children":[{"Good for kids":true}]},"gasPrices":[],"url":"https://www.google.com/maps/search/?api=1&query=TSANG-KAU&query_place_id=ChIJ2buSPAB_8CER0hTeod88CUk","searchPageUrl":"https://www.google.com/maps/search/restaurant%20chinois%20/@-18.950667688280813,47.51698360632788,16z?hl=en","searchString":"restaurant chinois ","language":"en","rank":15,"isAdvertisement":false,"imageUrl":"https://lh3.googleusercontent.com/p/AF1QipObhhm34lEndJ03cPEySETbN78arMkINf4HvYQ_=w408-h544-k-no","kgmid":"/g/11ybwq0h_8"},{"title":"Restaurant La Belle Ville","price":null,"categoryName":"Chinese restaurant","address":"3GQP+WJP, Rue Razafindralombo Pierre, Antananarivo, Madagascar","neighborhood":"Soarano","street":"3GQP+WJP, Rue Razafindralombo Pierre","city":"Antananarivo","postalCode":null,"state":null,"countryCode":"MG","phone":"+261 34 03 244 36","phoneUnformatted":"+261340324436","claimThisBusiness":true,"location":{"lat":-18.9101641,"lng":47.5365779},"totalScore":4.1,"permanentlyClosed":false,"temporarilyClosed":false,"placeId":"ChIJ7X3B7vl98CERNhGPKMJJxic","categories":["Chinese restaurant"],"fid":"0x21f07df9eec17ded:0x27c649c2288f1136","cid":"2866059311120847158","reviewsCount":13,"imagesCount":45,"imageCategories":[],"scrapedAt":"2025-05-08T04:05:24.148Z","googleFoodUrl":null,"hotelAds":[],"openingHours":[{"day":"Monday","hours":"10 AM to 2 PM, 5 to 10 PM"},{"day":"Tuesday","hours":"10 AM to 2 PM, 5 to 10 PM"},{"day":"Wednesday","hours":"10 AM to 2 PM, 5 to 10 PM"},{"day":"Thursday","hours":"10 AM to 2 PM, 5 to 10 PM"},{"day":"Friday","hours":"10 AM to 2 PM, 5 to 10 PM"},{"day":"Saturday","hours":"10 AM to 2 PM, 5 to 10 PM"},{"day":"Sunday","hours":"10 AM to 2 PM, 5 to 10 PM"}],"peopleAlsoSearch":[],"placesTags":[],"reviewsTags":[],"additionalInfo":{"Service options":[{"Takeout":true},{"Dine-in":true}],"Highlights":[{"Great coffee":true},{"Great dessert":true}],"Popular for":[{"Lunch":true},{"Dinner":true},{"Solo dining":true}],"Offerings":[{"Alcohol":true},{"Beer":true},{"Cocktails":true},{"Coffee":true},{"Hard liquor":true},{"Small plates":true},{"Wine":true}],"Dining options":[{"Lunch":true},{"Dinner":true},{"Catering":true},{"Dessert":true}],"Amenities":[{"Restroom":true}],"Atmosphere":[{"Casual":true},{"Cozy":true}],"Crowd":[{"Groups":true},{"Tourists":true}],"Planning":[{"Accepts reservations":true}],"Children":[{"Good for kids":true}],"Parking":[{"Free street parking":true}]},"gasPrices":[],"url":"https://www.google.com/maps/search/?api=1&query=Restaurant%20La%20Belle%20Ville&query_place_id=ChIJ7X3B7vl98CERNhGPKMJJxic","searchPageUrl":"https://www.google.com/maps/search/restaurant%20chinois%20/@-18.950667688280813,47.51698360632788,16z?hl=en","searchString":"restaurant chinois ","language":"en","rank":16,"isAdvertisement":false,"imageUrl":"https://lh3.googleusercontent.com/p/AF1QipNDWX5a1IpH3BSryRA9ZpB_u7tet_SNh7nS-Jqt=w493-h240-k-no","kgmid":"/g/1tkp220x"},{"title":"ÔCG Ô Chinois Gourmand","price":null,"categoryName":"Restaurant","address":"3GQ8+CC2 Bloc commercial #7, Antananarivo 101, Madagascar","neighborhood":null,"street":"3GQ8+CC2 Bloc commercial #7","city":"Antananarivo","postalCode":"101","state":null,"countryCode":"MG","phone":"+261 34 36 105 80","phoneUnformatted":"+261343610580","claimThisBusiness":true,"location":{"lat":-18.9114791,"lng":47.5160096},"totalScore":3,"permanentlyClosed":false,"temporarilyClosed":false,"placeId":"ChIJpSsUfOR_8CERI14ilyoEn3M","categories":["Restaurant"],"fid":"0x21f07fe47c142ba5:0x739f042a97225e23","cid":"8331382416629456419","reviewsCount":2,"imagesCount":null,"imageCategories":[],"scrapedAt":"2025-05-08T04:05:24.148Z","googleFoodUrl":null,"hotelAds":[],"openingHours":[],"peopleAlsoSearch":[],"placesTags":[],"reviewsTags":[],"additionalInfo":{"Service options":[{"Takeout":true},{"Dine-in":true}],"Highlights":[{"Great coffee":true}],"Popular for":[{"Solo dining":true}],"Offerings":[{"Alcohol":true},{"Beer":true},{"Coffee":true},{"Small plates":true}],"Dining options":[{"Lunch":true},{"Dinner":true},{"Dessert":true}],"Amenities":[{"Restroom":true}],"Atmosphere":[{"Cozy":true}],"Crowd":[{"Groups":true}],"Planning":[{"Accepts reservations":true}],"Children":[{"Good for kids":true}]},"gasPrices":[],"url":"https://www.google.com/maps/search/?api=1&query=%C3%94CG%20%C3%94%20Chinois%20Gourmand&query_place_id=ChIJpSsUfOR_8CERI14ilyoEn3M","searchPageUrl":"https://www.google.com/maps/search/restaurant%20chinois%20/@-18.950667688280813,47.51698360632788,16z?hl=en","searchString":"restaurant chinois ","language":"en","rank":17,"isAdvertisement":false,"kgmid":"/g/11rjmk6csl"},{"title":"Le Petit Bouchon","price":null,"categoryName":"Mandarin restaurant","address":"Lot IVM, 122L Rue Agosthino Neto, Antananarivo 101, Madagascar","neighborhood":null,"street":"Lot IVM, 122L Rue Agosthino Neto","city":"Antananarivo","postalCode":"101","state":null,"countryCode":"MG","phone":"+261 38 92 329 02","phoneUnformatted":"+261389232902","claimThisBusiness":false,"location":{"lat":-18.9118866,"lng":47.5086171},"totalScore":4.2,"permanentlyClosed":false,"temporarilyClosed":false,"placeId":"ChIJsVGX4Gd_8CER2UABK6No020","categories":["Mandarin restaurant"],"fid":"0x21f07f67e09751b1:0x6dd368a32b0140d9","cid":"7913784020230553817","reviewsCount":5,"imagesCount":12,"imageCategories":[],"scrapedAt":"2025-05-08T04:05:24.149Z","googleFoodUrl":null,"hotelAds":[],"openingHours":[{"day":"Monday","hours":"11 AM to 9 PM"},{"day":"Tuesday","hours":"11 AM to 9 PM"},{"day":"Wednesday","hours":"11 AM to 9 PM"},{"day":"Thursday","hours":"11 AM to 9 PM"},{"day":"Friday","hours":"11 AM to 9 PM"},{"day":"Saturday","hours":"11 AM to 9 PM"},{"day":"Sunday","hours":"5 to 10 PM"}],"peopleAlsoSearch":[],"placesTags":[],"reviewsTags":[],"additionalInfo":{"Service options":[{"Delivery":true},{"Takeout":true},{"Dine-in":true}],"Highlights":[{"Great coffee":true},{"Great dessert":true}],"Popular for":[{"Lunch":true},{"Dinner":true},{"Solo dining":true}],"Offerings":[{"Alcohol":true},{"Beer":true},{"Coffee":true},{"Small plates":true},{"Wine":true}],"Dining options":[{"Lunch":true},{"Dinner":true},{"Dessert":true}],"Amenities":[{"Restroom":true}],"Atmosphere":[{"Casual":true},{"Cozy":true}],"Crowd":[{"Groups":true},{"Tourists":true}],"Planning":[{"Accepts reservations":true}],"Children":[{"Good for kids":true}],"Parking":[{"Free street parking":true}]},"gasPrices":[],"url":"https://www.google.com/maps/search/?api=1&query=Le%20Petit%20Bouchon&query_place_id=ChIJsVGX4Gd_8CER2UABK6No020","searchPageUrl":"https://www.google.com/maps/search/restaurant%20chinois%20/@-18.950667688280813,47.51698360632788,16z?hl=en","searchString":"restaurant chinois ","language":"en","rank":18,"isAdvertisement":false,"imageUrl":"https://lh3.googleusercontent.com/p/AF1QipOp6mjlguVucm3Q1rk0mR_EKa1usRtu6sG4U9G7=w408-h544-k-no","kgmid":"/g/11kqn2_055"},{"title":"Hirondelle \"燕子\" Chinese FOOD","price":null,"categoryName":"Hot pot restaurant","address":"Lalana Dama-Ntsoha Razatintsalama Jean-Baptiste, Antananarivo 101, Madagascar","neighborhood":null,"street":"Lalana Dama-Ntsoha Razatintsalama Jean-Baptiste","city":"Antananarivo","postalCode":"101","state":null,"countryCode":"MG","phone":"+261 34 11 166 78","phoneUnformatted":"+261341116678","claimThisBusiness":false,"location":{"lat":-18.9174137,"lng":47.5366284},"totalScore":4.6,"permanentlyClosed":false,"temporarilyClosed":false,"placeId":"ChIJI-iKXM598CER_6rzJtVbyVw","categories":["Hot pot restaurant","Asian fusion restaurant","Asian restaurant"],"fid":"0x21f07dce5c8ae823:0x5cc95bd526f3aaff","cid":"6685976092847876863","reviewsCount":28,"imagesCount":39,"imageCategories":[],"scrapedAt":"2025-05-08T04:05:24.149Z","googleFoodUrl":null,"hotelAds":[],"openingHours":[{"day":"Monday","hours":"11 AM to 9 PM"},{"day":"Tuesday","hours":"11 AM to 9 PM"},{"day":"Wednesday","hours":"11 AM to 9 PM"},{"day":"Thursday","hours":"11 AM to 9 PM"},{"day":"Friday","hours":"11 AM to 9 PM"},{"day":"Saturday","hours":"11 AM to 9 PM"},{"day":"Sunday","hours":"Closed"}],"peopleAlsoSearch":[],"placesTags":[],"reviewsTags":[],"additionalInfo":{"Service options":[{"No-contact delivery":true},{"Delivery":true},{"Onsite services":true},{"Takeout":true},{"Dine-in":true}],"Highlights":[{"Great coffee":true},{"Great dessert":true}],"Popular for":[{"Lunch":true},{"Dinner":true},{"Solo dining":true}],"Accessibility":[{"Wheelchair accessible entrance":true},{"Wheelchair accessible parking lot":true},{"Wheelchair accessible seating":true},{"Assistive hearing loop":false},{"Wheelchair accessible restroom":false}],"Offerings":[{"Alcohol":true},{"Beer":true},{"Cocktails":true},{"Coffee":true},{"Hard liquor":true},{"Organic dishes":true},{"Small plates":true},{"Vegan options":true},{"Vegetarian options":true},{"Wine":true}],"Dining options":[{"Lunch":true},{"Dinner":true},{"Catering":true},{"Counter service":true},{"Dessert":true},{"Seating":true}],"Amenities":[{"Bar onsite":true},{"Gender-neutral restroom":true},{"Restroom":true},{"Wi-Fi":true},{"Free Wi-Fi":true}],"Atmosphere":[{"Casual":true},{"Cozy":true},{"Quiet":true}],"Crowd":[{"Family-friendly":true},{"Groups":true},{"LGBTQ+ friendly":true},{"Tourists":true},{"Transgender safespace":true}],"Planning":[{"Accepts reservations":true}],"Payments":[{"Cash-only":true},{"Checks":true},{"Credit cards":true},{"Debit cards":true},{"NFC mobile payments":true},{"Credit cards":true}],"Children":[{"Good for kids":true},{"High chairs":true}],"Parking":[{"Free parking lot":true},{"Free street parking":true},{"On-site parking":true},null]},"gasPrices":[],"url":"https://www.google.com/maps/search/?api=1&query=Hirondelle%20%22%E7%87%95%E5%AD%90%22%20Chinese%20FOOD&query_place_id=ChIJI-iKXM598CER_6rzJtVbyVw","searchPageUrl":"https://www.google.com/maps/search/restaurant%20chinois%20/@-18.950667688280813,47.51698360632788,16z?hl=en","searchString":"restaurant chinois ","language":"en","rank":19,"isAdvertisement":false,"imageUrl":"https://lh3.googleusercontent.com/p/AF1QipN81Er_XPuOS0tVyZV3faApbntoE2HLrI6qfokc=w426-h240-k-no","kgmid":"/g/11h2635fq_"},{"title":"Restaurant Soleil d'Orient","price":null,"categoryName":"Asian restaurant","address":"3GPH+FF8, Antananarivo 101, Madagascar","neighborhood":null,"street":"3GPH+FF8","city":"Antananarivo","postalCode":"101","state":null,"countryCode":"MG","website":"https://www.facebook.com/profile.php?id=100071186117063&mibextid=ZbWKwL","claimThisBusiness":true,"location":{"lat":-18.9138507,"lng":47.5288341},"totalScore":4.4,"permanentlyClosed":false,"temporarilyClosed":false,"placeId":"ChIJobVxKWp98CERlT3qaBOC5q8","categories":["Asian restaurant"],"fid":"0x21f07d6a2971b5a1:0xafe6821368ea3d95","cid":"12674961221157010837","reviewsCount":7,"imagesCount":5,"imageCategories":[],"scrapedAt":"2025-05-08T04:05:24.149Z","googleFoodUrl":null,"hotelAds":[],"openingHours":[],"peopleAlsoSearch":[],"placesTags":[],"reviewsTags":[],"additionalInfo":{"Service options":[{"Takeout":true},{"Dine-in":true}],"Highlights":[{"Great coffee":true},{"Great dessert":true}],"Popular for":[{"Lunch":true},{"Dinner":true},{"Solo dining":true}],"Offerings":[{"Coffee":true},{"Small plates":true}],"Dining options":[{"Lunch":true},{"Dinner":true},{"Dessert":true}],"Amenities":[{"Restroom":true}],"Atmosphere":[{"Casual":true},{"Cozy":true}],"Crowd":[{"Groups":true},{"Tourists":true}],"Planning":[{"Accepts reservations":true}],"Children":[{"Good for kids":true}]},"gasPrices":[],"url":"https://www.google.com/maps/search/?api=1&query=Restaurant%20Soleil%20d'Orient&query_place_id=ChIJobVxKWp98CERlT3qaBOC5q8","searchPageUrl":"https://www.google.com/maps/search/restaurant%20chinois%20/@-18.950667688280813,47.51698360632788,16z?hl=en","searchString":"restaurant chinois ","language":"en","rank":20,"isAdvertisement":false,"imageUrl":"https://lh3.googleusercontent.com/p/AF1QipNBcH0mHI38rVw-r0X8u5bt_0JpzW17Od-CH1x2=w408-h306-k-no","kgmid":"/g/11l1q64g1d"},{"title":"Quick Delice","price":null,"categoryName":"Chinese restaurant","address":"3GRG+2RM, Antananarivo, Madagascar","neighborhood":null,"street":"3GRG+2RM","city":"Antananarivo","postalCode":null,"state":null,"countryCode":"MG","claimThisBusiness":true,"location":{"lat":-18.9099024,"lng":47.5270385},"totalScore":4,"permanentlyClosed":false,"temporarilyClosed":false,"placeId":"ChIJMcDFZQd-8CER9HZPCGUwsz0","categories":["Chinese restaurant"],"fid":"0x21f07e0765c5c031:0x3db33065084f76f4","cid":"4445950467634067188","reviewsCount":9,"imagesCount":7,"imageCategories":[],"scrapedAt":"2025-05-08T04:05:24.923Z","googleFoodUrl":null,"hotelAds":[],"openingHours":[{"day":"Monday","hours":"9 AM to 7 PM"},{"day":"Tuesday","hours":"9 AM to 7 PM"},{"day":"Wednesday","hours":"9 AM to 7 PM"},{"day":"Thursday","hours":"9 AM to 7 PM"},{"day":"Friday","hours":"9 AM to 7 PM"},{"day":"Saturday","hours":"9 AM to 7 PM"},{"day":"Sunday","hours":"Closed"}],"peopleAlsoSearch":[],"placesTags":[],"reviewsTags":[],"additionalInfo":{"Service options":[{"Takeout":true},{"Dine-in":true}],"Highlights":[{"Great coffee":true}],"Popular for":[{"Lunch":true},{"Dinner":true},{"Solo dining":true}],"Offerings":[{"Coffee":true},{"Quick bite":true},{"Small plates":true}],"Dining options":[{"Lunch":true},{"Dinner":true},{"Dessert":true}],"Amenities":[{"Restroom":true}],"Atmosphere":[{"Casual":true},{"Cozy":true}],"Crowd":[{"Groups":true},{"Tourists":true}],"Planning":[{"Accepts reservations":true}],"Children":[{"Good for kids":true}]},"gasPrices":[],"url":"https://www.google.com/maps/search/?api=1&query=Quick%20Delice&query_place_id=ChIJMcDFZQd-8CER9HZPCGUwsz0","searchPageUrl":"https://www.google.com/maps/search/restaurant%20chinois%20/@-18.91814329765616,47.53417819367214,16z?hl=en","searchString":"restaurant chinois ","language":"en","rank":7,"isAdvertisement":false,"imageUrl":"https://lh3.googleusercontent.com/p/AF1QipO8xK_oxdPvhBlnkEnXlX0WXLI_Bm0tRaV4BgZA=w408-h306-k-no","kgmid":"/g/11d_8gt278"},{"title":"Les Petits Plats De Maman","price":null,"categoryName":"Hot pot restaurant","address":"Immeuble Art&jardin Antaninarenina, En face bio 33, Antananarivo 101, Madagascar","neighborhood":null,"street":"Immeuble Art&jardin Antaninarenina, En face bio 33","city":"Antananarivo","postalCode":"101","state":null,"countryCode":"MG","phone":"+261 34 03 777 71","phoneUnformatted":"+261340377771","claimThisBusiness":false,"location":{"lat":-18.9107144,"lng":47.5223128},"totalScore":4.5,"permanentlyClosed":false,"temporarilyClosed":false,"placeId":"ChIJH2AXouJ98CERRUYolicb_7k","categories":["Hot pot restaurant","Delivery Restaurant","Takeout Restaurant"],"fid":"0x21f07de2a217601f:0xb9ff1b2796284645","cid":"13402460872914781765","reviewsCount":13,"imagesCount":289,"imageCategories":[],"scrapedAt":"2025-05-08T04:05:24.924Z","googleFoodUrl":null,"hotelAds":[],"openingHours":[{"day":"Monday","hours":"9 AM to 6 PM"},{"day":"Tuesday","hours":"9 AM to 6 PM"},{"day":"Wednesday","hours":"9 AM to 6 PM"},{"day":"Thursday","hours":"9 AM to 6 PM"},{"day":"Friday","hours":"9 AM to 8 PM"},{"day":"Saturday","hours":"9 AM to 8 PM"},{"day":"Sunday","hours":"Closed"}],"peopleAlsoSearch":[],"placesTags":[],"reviewsTags":[],"additionalInfo":{"Service options":[{"Takeout":true},{"Dine-in":true}],"Highlights":[{"Great coffee":true},{"Great dessert":true}],"Popular for":[{"Lunch":true},{"Dinner":true},{"Solo dining":true}],"Accessibility":[{"Assistive hearing loop":false},{"Wheelchair accessible entrance":false},{"Wheelchair accessible parking lot":false},{"Wheelchair accessible seating":false}],"Offerings":[{"Coffee":true},{"Small plates":true},{"Vegetarian options":true}],"Dining options":[{"Lunch":true},{"Dinner":true},{"Catering":true},{"Dessert":true}],"Amenities":[{"Restroom":true}],"Atmosphere":[{"Casual":true},{"Cozy":true}],"Crowd":[{"Family-friendly":true},{"Groups":true},{"Tourists":true}],"Planning":[{"Reservations required":true},{"Accepts reservations":true}],"Payments":[{"Credit cards":true},{"NFC mobile payments":true}],"Children":[{"Good for kids":true}],"Parking":[{"Free street parking":true}]},"gasPrices":[],"url":"https://www.google.com/maps/search/?api=1&query=Les%20Petits%20Plats%20De%20Maman&query_place_id=ChIJH2AXouJ98CERRUYolicb_7k","searchPageUrl":"https://www.google.com/maps/search/restaurant%20chinois%20/@-18.91814329765616,47.53417819367214,16z?hl=en","searchString":"restaurant chinois ","language":"en","rank":10,"isAdvertisement":false,"imageUrl":"https://lh3.googleusercontent.com/p/AF1QipNKkACHoBIJH05gMgy-TEQjDhRDA43nC6L4WeQZ=w426-h240-k-no","kgmid":"/g/11f__25wdz"},{"title":"Au bon coin Tàna","price":null,"categoryName":"Chinese restaurant","address":"IIM41, 101, Madagascar","neighborhood":null,"street":"IIM41","city":"Antananarivo","postalCode":"101","state":null,"countryCode":"MG","phone":"+261 38 54 546 82","phoneUnformatted":"+261385454682","claimThisBusiness":true,"location":{"lat":-18.9119475,"lng":47.5343492},"permanentlyClosed":false,"temporarilyClosed":false,"placeId":"ChIJVRXkFgB98CERAOHReMRbVh8","categories":["Chinese restaurant"],"fid":"0x21f07d0016e41555:0x1f565bc478d1e100","cid":"2258093162571620608","reviewsCount":0,"imagesCount":3,"imageCategories":[],"scrapedAt":"2025-05-08T04:05:24.924Z","googleFoodUrl":null,"hotelAds":[],"openingHours":[{"day":"Monday","hours":"Open 24 hours"},{"day":"Tuesday","hours":"Closed"},{"day":"Wednesday","hours":"10 AM to 8:30 PM"},{"day":"Thursday","hours":"10 AM to 8:30 PM"},{"day":"Friday","hours":"10 AM to 9 PM"},{"day":"Saturday","hours":"10 AM to 9:30 PM"},{"day":"Sunday","hours":"4 to 9 PM"}],"peopleAlsoSearch":[],"placesTags":[],"reviewsTags":[],"additionalInfo":{"Service options":[{"Dine-in":true}],"Popular for":[{"Solo dining":true}],"Offerings":[{"Small plates":true}],"Amenities":[{"Restroom":true}],"Atmosphere":[{"Casual":true},{"Cozy":true}],"Crowd":[{"Groups":true}],"Children":[{"Good for kids":true}]},"gasPrices":[],"url":"https://www.google.com/maps/search/?api=1&query=Au%20bon%20coin%20T%C3%A0na&query_place_id=ChIJVRXkFgB98CERAOHReMRbVh8","searchPageUrl":"https://www.google.com/maps/search/restaurant%20chinois%20/@-18.91814329765616,47.53417819367214,16z?hl=en","searchString":"restaurant chinois ","language":"en","rank":12,"isAdvertisement":false,"imageUrl":"https://lh3.googleusercontent.com/p/AF1QipOAplYUaeBFWeUtXw5FkPV4Kg6qp-DNvwWGjy1s=w408-h544-k-no","kgmid":"/g/11w2n36lqg"},{"title":"LA TABLE DE CHINE","price":null,"categoryName":"Chinese restaurant","address":"3GJV+JRJ Le Colisée, Antananarivo 101, Madagascar","neighborhood":null,"street":"3GJV+JRJ Le Colisée","city":"Antananarivo","postalCode":"101","state":null,"countryCode":"MG","phone":"+261 38 47 253 32","phoneUnformatted":"+261384725332","claimThisBusiness":true,"location":{"lat":-18.9184218,"lng":47.5445059},"permanentlyClosed":false,"temporarilyClosed":false,"placeId":"ChIJP48Vont98CER_Oh0tBlKZVc","categories":["Chinese restaurant"],"fid":"0x21f07d7ba2158f3f:0x57654a19b474e8fc","cid":"6297521128209705212","reviewsCount":0,"imagesCount":null,"imageCategories":[],"scrapedAt":"2025-05-08T04:05:24.924Z","googleFoodUrl":null,"hotelAds":[],"openingHours":[{"day":"Monday","hours":"11 AM to 8 PM"},{"day":"Tuesday","hours":"11 AM to 8 PM"},{"day":"Wednesday","hours":"11 AM to 8 PM"},{"day":"Thursday","hours":"11 AM to 8 PM"},{"day":"Friday","hours":"11 AM to 8 PM"},{"day":"Saturday","hours":"11 AM to 8 PM"},{"day":"Sunday","hours":"Closed"}],"peopleAlsoSearch":[],"placesTags":[],"reviewsTags":[],"additionalInfo":{"Service options":[{"Delivery":true},{"Takeout":true},{"Dine-in":true}],"Popular for":[{"Solo dining":true}],"Dining options":[{"Lunch":true},{"Dinner":true},{"Dessert":true}],"Amenities":[{"Restroom":true}],"Atmosphere":[{"Cozy":true}],"Crowd":[{"Groups":true}],"Planning":[{"Accepts reservations":true}],"Children":[{"Good for kids":true}]},"gasPrices":[],"url":"https://www.google.com/maps/search/?api=1&query=LA%20TABLE%20DE%20CHINE&query_place_id=ChIJP48Vont98CER_Oh0tBlKZVc","searchPageUrl":"https://www.google.com/maps/search/restaurant%20chinois%20/@-18.91814329765616,47.53417819367214,16z?hl=en","searchString":"restaurant chinois ","language":"en","rank":13,"isAdvertisement":false,"kgmid":"/g/11t3czw3wp"},{"title":"La Jonquille","price":null,"categoryName":"Restaurant","address":"Antananarivo 101, Madagascar","neighborhood":"Soarano","street":null,"city":"Antananarivo","postalCode":"101","state":null,"countryCode":"MG","phone":"+261 20 22 206 37","phoneUnformatted":"+261202220637","claimThisBusiness":false,"location":{"lat":-18.9093258,"lng":47.5368896},"totalScore":4,"permanentlyClosed":false,"temporarilyClosed":false,"placeId":"ChIJsarJ7gF-8CERhHavEwz3ykQ","categories":["Restaurant"],"fid":"0x21f07e01eec9aab1:0x44caf70c13af7684","cid":"4957045971116586628","reviewsCount":22,"imagesCount":5,"imageCategories":[],"scrapedAt":"2025-05-08T04:05:24.924Z","googleFoodUrl":null,"hotelAds":[],"openingHours":[{"day":"Monday","hours":"9 AM to 4:30 PM"},{"day":"Tuesday","hours":"9 AM to 4:30 PM"},{"day":"Wednesday","hours":"9 AM to 4:30 PM"},{"day":"Thursday","hours":"9 AM to 4:30 PM"},{"day":"Friday","hours":"9 AM to 4:30 PM"},{"day":"Saturday","hours":"9 AM to 4:30 PM"},{"day":"Sunday","hours":"9 AM to 4:30 PM"}],"peopleAlsoSearch":[],"placesTags":[],"reviewsTags":[],"additionalInfo":{"Service options":[{"Takeout":true},{"Dine-in":true}],"Highlights":[{"Great coffee":true},{"Great dessert":true}],"Popular for":[{"Lunch":true},{"Dinner":true},{"Solo dining":true}],"Offerings":[{"Alcohol":true},{"Coffee":true},{"Small plates":true}],"Dining options":[{"Lunch":true},{"Dinner":true},{"Dessert":true}],"Amenities":[{"Restroom":true}],"Atmosphere":[{"Casual":true},{"Cozy":true}],"Crowd":[{"Groups":true},{"Tourists":true}],"Planning":[{"Accepts reservations":true}],"Children":[{"Good for kids":true}]},"gasPrices":[],"url":"https://www.google.com/maps/search/?api=1&query=La%20Jonquille&query_place_id=ChIJsarJ7gF-8CERhHavEwz3ykQ","searchPageUrl":"https://www.google.com/maps/search/restaurant%20chinois%20/@-18.91814329765616,47.53417819367214,16z?hl=en","searchString":"restaurant chinois ","language":"en","rank":14,"isAdvertisement":false,"imageUrl":"https://lh3.googleusercontent.com/p/AF1QipMsJSKqkvUuNj8X2kClQStRgF9MnhWDeNbiCFA4=w493-h240-k-no","kgmid":"/g/1hdyy40w7"},{"title":"Restaurant Shanghai","price":null,"categoryName":"Chinese restaurant","address":"4 Lalana Rainitovo, Antananarivo, Madagascar","neighborhood":null,"street":"4 Lalana Rainitovo","city":"Antananarivo","postalCode":null,"state":null,"countryCode":"MG","claimThisBusiness":true,"location":{"lat":-18.9088825,"lng":47.5238114},"totalScore":4,"permanentlyClosed":false,"temporarilyClosed":false,"placeId":"ChIJXWS5D-l_8CERi-sWaRxOsCM","categories":["Chinese restaurant"],"fid":"0x21f07fe90fb9645d:0x23b04e1c6916eb8b","cid":"2571641271157713803","reviewsCount":3,"imagesCount":13,"imageCategories":[],"scrapedAt":"2025-05-08T04:05:24.924Z","googleFoodUrl":null,"hotelAds":[],"openingHours":[{"day":"Monday","hours":"10 AM to 9 PM"},{"day":"Tuesday","hours":"10 AM to 9 PM"},{"day":"Wednesday","hours":"10 AM to 9 PM"},{"day":"Thursday","hours":"10 AM to 9 PM"},{"day":"Friday","hours":"10 AM to 9 PM"},{"day":"Saturday","hours":"10 AM to 9 PM"},{"day":"Sunday","hours":"10 AM to 9 PM"}],"peopleAlsoSearch":[],"placesTags":[],"reviewsTags":[],"additionalInfo":{"Service options":[{"Takeout":true},{"Dine-in":true}],"Popular for":[{"Lunch":true},{"Dinner":true},{"Solo dining":true}],"Offerings":[{"Alcohol":true},{"Beer":true},{"Coffee":true},{"Small plates":true},{"Wine":true}],"Dining options":[{"Lunch":true},{"Dinner":true},{"Catering":true},{"Dessert":true}],"Amenities":[{"Restroom":true}],"Atmosphere":[{"Casual":true},{"Cozy":true},{"Quiet":true}],"Crowd":[{"Groups":true},{"Tourists":true}],"Planning":[{"Accepts reservations":true}],"Children":[{"Good for kids":true}]},"gasPrices":[],"url":"https://www.google.com/maps/search/?api=1&query=Restaurant%20Shanghai&query_place_id=ChIJXWS5D-l_8CERi-sWaRxOsCM","searchPageUrl":"https://www.google.com/maps/search/restaurant%20chinois%20/@-18.91814329765616,47.53417819367214,16z?hl=en","searchString":"restaurant chinois ","language":"en","rank":16,"isAdvertisement":false,"imageUrl":"https://lh3.googleusercontent.com/p/AF1QipNgJ0A4a7vxDhPr9vdAHdI4HHiN_Ru5a4dJnwDk=w426-h240-k-no","kgmid":"/g/11l6_17dz3"},{"title":"Restaurant Le JASMIN","price":null,"categoryName":"Asian restaurant","address":"8 Rue Paul Dussac analamakelydohan Analakley, Madagascar","neighborhood":null,"street":"8 Rue Paul Dussac analamakelydohan Analakley","city":"Antananarivo","postalCode":null,"state":null,"countryCode":"MG","phone":"+261 34 62 413 75","phoneUnformatted":"+261346241375","claimThisBusiness":false,"location":{"lat":-18.9103791,"lng":47.5267009},"totalScore":4,"permanentlyClosed":false,"temporarilyClosed":false,"placeId":"ChIJCaT1iJmH8CERXgpKE4hO9Hg","categories":["Asian restaurant"],"fid":"0x21f0879988f5a409:0x78f44e88134a0a5e","cid":"8715677525214890590","reviewsCount":21,"imagesCount":49,"imageCategories":[],"scrapedAt":"2025-05-08T04:05:24.926Z","googleFoodUrl":null,"hotelAds":[],"openingHours":[{"day":"Monday","hours":"Closed"},{"day":"Tuesday","hours":"11 AM to 9 PM"},{"day":"Wednesday","hours":"11 AM to 9 PM"},{"day":"Thursday","hours":"11 AM to 9 PM"},{"day":"Friday","hours":"11 AM to 9 PM"},{"day":"Saturday","hours":"11 AM to 9 PM"},{"day":"Sunday","hours":"11 AM to 2 PM"}],"peopleAlsoSearch":[],"placesTags":[],"reviewsTags":[],"additionalInfo":{"Service options":[{"Takeout":true},{"Dine-in":true}],"Highlights":[{"Great cocktails":true},{"Great coffee":true},{"Great dessert":true}],"Popular for":[{"Lunch":true},{"Dinner":true},{"Solo dining":true}],"Offerings":[{"Alcohol":true},{"All you can eat":true},{"Beer":true},{"Cocktails":true},{"Coffee":true},{"Hard liquor":true},{"Small plates":true},{"Vegetarian options":true},{"Wine":true}],"Dining options":[{"Breakfast":true},{"Brunch":true},{"Lunch":true},{"Dinner":true},{"Catering":true},{"Dessert":true},{"Seating":true}],"Amenities":[{"Bar onsite":true},{"Restroom":true}],"Atmosphere":[{"Casual":true},{"Cozy":true},{"Quiet":true}],"Crowd":[{"Groups":true},{"Tourists":true}],"Planning":[{"Accepts reservations":true}],"Payments":[{"Checks":true}],"Children":[{"Good for kids":true}]},"gasPrices":[],"url":"https://www.google.com/maps/search/?api=1&query=Restaurant%20Le%20JASMIN&query_place_id=ChIJCaT1iJmH8CERXgpKE4hO9Hg","searchPageUrl":"https://www.google.com/maps/search/restaurant%20chinois%20/@-18.91814329765616,47.53417819367214,16z?hl=en","searchString":"restaurant chinois ","language":"en","rank":17,"isAdvertisement":false,"imageUrl":"https://lh3.googleusercontent.com/p/AF1QipMHp_2LCbBD87BGTiFCNQTCW4EIJQVMrJaDI7Fc=w408-h534-k-no","kgmid":"/g/11j8hhwl7v"},{"title":"Le Grand Tsang","price":null,"categoryName":"Asian restaurant","address":"3GVM+5JV, Antananarivo, Madagascar","neighborhood":"Soarano","street":"3GVM+5JV","city":"Antananarivo","postalCode":null,"state":null,"countryCode":"MG","claimThisBusiness":true,"location":{"lat":-18.9070166,"lng":47.5340499},"totalScore":3.7,"permanentlyClosed":false,"temporarilyClosed":false,"placeId":"ChIJKe65lDZ98CERP7gGBHJkFTA","categories":["Asian restaurant"],"fid":"0x21f07d3694b9ee29:0x301564720406b83f","cid":"3464785929188063295","reviewsCount":7,"imagesCount":6,"imageCategories":[],"scrapedAt":"2025-05-08T04:05:24.930Z","googleFoodUrl":null,"hotelAds":[],"openingHours":[],"peopleAlsoSearch":[],"placesTags":[],"reviewsTags":[],"additionalInfo":{"Service options":[{"Takeout":true},{"Dine-in":true}],"Highlights":[{"Great coffee":true},{"Great dessert":true}],"Popular for":[{"Lunch":true},{"Dinner":true},{"Solo dining":true}],"Accessibility":[{"Wheelchair accessible parking lot":true}],"Offerings":[{"Coffee":true},{"Small plates":true}],"Dining options":[{"Lunch":true},{"Dinner":true},{"Dessert":true}],"Amenities":[{"Restroom":true}],"Atmosphere":[{"Casual":true},{"Cozy":true}],"Crowd":[{"Groups":true},{"Tourists":true}],"Planning":[{"Accepts reservations":true}],"Children":[{"Good for kids":true}]},"gasPrices":[],"url":"https://www.google.com/maps/search/?api=1&query=Le%20Grand%20Tsang&query_place_id=ChIJKe65lDZ98CERP7gGBHJkFTA","searchPageUrl":"https://www.google.com/maps/search/restaurant%20chinois%20/@-18.91814329765616,47.53417819367214,16z?hl=en","searchString":"restaurant chinois ","language":"en","rank":18,"isAdvertisement":false,"imageUrl":"https://lh3.googleusercontent.com/p/AF1QipNrUZnixYgZUADNzpQeLnLmPifcq-epN5o7slMP=w408-h544-k-no","kgmid":"/g/11twtlyn28"},{"title":"Bazar du Quartier","price":null,"categoryName":"Grocery store","address":"Arabe Mahatma Ghandi, Antananarivo, Madagascar","neighborhood":null,"street":"Arabe Mahatma Ghandi","city":"Antananarivo","postalCode":null,"state":null,"countryCode":"MG","phone":"+261 32 22 029 23","phoneUnformatted":"+261322202923","claimThisBusiness":false,"location":{"lat":-18.9212996,"lng":47.5279367},"totalScore":4,"permanentlyClosed":false,"temporarilyClosed":false,"placeId":"ChIJmy5nJOB98CERu-Kr3sPEHBA","categories":["Grocery store"],"fid":"0x21f07de024672e9b:0x101cc4c3deabe2bb","cid":"1161019149488218811","reviewsCount":12,"imagesCount":49,"imageCategories":[],"scrapedAt":"2025-05-08T04:05:24.930Z","googleFoodUrl":null,"hotelAds":[],"openingHours":[{"day":"Monday","hours":"6 AM to 10 PM"},{"day":"Tuesday","hours":"6 AM to 10 PM"},{"day":"Wednesday","hours":"6 AM to 10 PM"},{"day":"Thursday","hours":"6 AM to 10 PM"},{"day":"Friday","hours":"6 AM to 11 PM"},{"day":"Saturday","hours":"6 AM to 11 PM"},{"day":"Sunday","hours":"6 AM to 11 PM"}],"peopleAlsoSearch":[],"placesTags":[],"reviewsTags":[],"additionalInfo":{"Service options":[{"Curbside pickup":true},{"In-store pickup":true},{"In-store shopping":true},{"Onsite services":true},{"Delivery":false}],"Highlights":[{"Great produce":true}],"Planning":[{"Quick visit":true}],"Payments":[{"Cash-only":true}],"Parking":[{"Free parking lot":true},{"Free street parking":true},{"On-site parking":true}]},"gasPrices":[],"url":"https://www.google.com/maps/search/?api=1&query=Bazar%20du%20Quartier&query_place_id=ChIJmy5nJOB98CERu-Kr3sPEHBA","searchPageUrl":"https://www.google.com/maps/search/restaurant%20chinois%20/@-18.91814329765616,47.53417819367214,16z?hl=en","searchString":"restaurant chinois ","language":"en","rank":19,"isAdvertisement":false,"imageUrl":"https://lh3.googleusercontent.com/p/AF1QipNf7Sw2czwy-nyOLqkEtQShlhtorno6YZMgBlz2=w408-h260-k-no","kgmid":"/g/11yq9fhf1"},{"title":"點都德","price":null,"categoryName":"Chinese restaurant","address":"3GJC+JF6, Antananarivo, Madagascar","neighborhood":null,"street":"3GJC+JF6","city":"Antananarivo","postalCode":null,"state":null,"countryCode":"MG","claimThisBusiness":true,"location":{"lat":-18.9184607,"lng":47.5211293},"permanentlyClosed":false,"temporarilyClosed":false,"placeId":"ChIJITmOQQB_8CERVCth9vPw-7U","categories":["Chinese restaurant"],"fid":"0x21f07f00418e3921:0xb5fbf0f3f6612b54","cid":"13113339670620613460","reviewsCount":0,"imagesCount":null,"imageCategories":[],"scrapedAt":"2025-05-08T04:05:26.016Z","googleFoodUrl":null,"hotelAds":[],"openingHours":[],"peopleAlsoSearch":[],"placesTags":[],"reviewsTags":[],"additionalInfo":{"Popular for":[{"Solo dining":true}],"Offerings":[{"Small plates":true}],"Amenities":[{"Restroom":true}],"Atmosphere":[{"Casual":true},{"Cozy":true}],"Crowd":[{"Groups":true},{"Tourists":true}],"Children":[{"Good for kids":true}]},"gasPrices":[],"url":"https://www.google.com/maps/search/?api=1&query=%E9%BB%9E%E9%83%BD%E5%BE%B7&query_place_id=ChIJITmOQQB_8CERVCth9vPw-7U","searchPageUrl":"https://www.google.com/maps/search/restaurant%20chinois%20/@-18.91814329765616,47.53417819367214,16z?hl=en","searchString":"restaurant chinois ","language":"en","rank":31,"isAdvertisement":false,"kgmid":"/g/11w__3ptx6"},{"title":"Au Coeur De Jade","price":null,"categoryName":"Restaurant","address":"Lalana Dok Razafindratandra, Antananarivo 101, Madagascar","neighborhood":null,"street":"Lalana Dok Razafindratandra","city":"Antananarivo","postalCode":"101","state":null,"countryCode":"MG","phone":"+261 32 55 378 66","phoneUnformatted":"+261325537866","claimThisBusiness":false,"location":{"lat":-18.9170536,"lng":47.52727},"totalScore":3.5,"permanentlyClosed":false,"temporarilyClosed":false,"placeId":"ChIJEQIe5Al-8CERO7pOtRAOk6g","categories":["Restaurant"],"fid":"0x21f07e09e41e0211:0xa8930e10b54eba3b","cid":"12147068084872460859","reviewsCount":14,"reviewsDistribution":{"oneStar":1,"twoStar":2,"threeStar":3,"fourStar":5,"fiveStar":3},"imagesCount":29,"imageCategories":[],"scrapedAt":"2025-05-08T04:05:26.017Z","googleFoodUrl":null,"hotelAds":[],"openingHours":[{"day":"Monday","hours":"7 AM to 8 PM"},{"day":"Tuesday","hours":"7 AM to 8 PM"},{"day":"Wednesday","hours":"7 AM to 8 PM"},{"day":"Thursday","hours":"7 AM to 8 PM"},{"day":"Friday","hours":"7 AM to 8 PM"},{"day":"Saturday","hours":"7 AM to 8 PM"},{"day":"Sunday","hours":"7 AM to 8 PM"}],"peopleAlsoSearch":[],"placesTags":[],"reviewsTags":[],"additionalInfo":{"Service options":[{"Takeout":true},{"Dine-in":true}],"Popular for":[{"Lunch":true},{"Solo dining":true}],"Offerings":[{"Coffee":true}],"Dining options":[{"Lunch":true},{"Dinner":true},{"Catering":true},{"Dessert":true}],"Amenities":[{"Restroom":true}],"Atmosphere":[{"Cozy":true}],"Crowd":[{"College students":true},{"Groups":true}],"Planning":[{"Accepts reservations":true}],"Children":[{"Good for kids":true}]},"gasPrices":[],"url":"https://www.google.com/maps/search/?api=1&query=Au%20Coeur%20De%20Jade&query_place_id=ChIJEQIe5Al-8CERO7pOtRAOk6g","searchPageUrl":"https://www.google.com/maps/search/restaurant%20chinois%20/@-18.91814329765616,47.53417819367214,16z?hl=en","searchString":"restaurant chinois ","language":"en","rank":33,"isAdvertisement":false,"imageUrl":"https://lh3.googleusercontent.com/p/AF1QipOwM_Ksr6Ku0_pepFL5HkUruVHL7xCfL_bhNo7J=w493-h240-k-no","kgmid":"/g/11c5bp_l02"},{"title":"Panda Wock","price":null,"categoryName":"Asian restaurant","address":"3GGW+J87, Rue Tsimanindry, Antananarivo, Madagascar","neighborhood":null,"street":"3GGW+J87, Rue Tsimanindry","city":"Antananarivo","postalCode":null,"state":null,"countryCode":"MG","claimThisBusiness":true,"location":{"lat":-18.9234467,"lng":47.5458075},"permanentlyClosed":false,"temporarilyClosed":false,"placeId":"ChIJsT6ETAB98CERiE7eXxbhVYA","categories":["Asian restaurant"],"fid":"0x21f07d004c843eb1:0x8055e1165fde4e88","cid":"9247544896089116296","reviewsCount":0,"imagesCount":null,"imageCategories":[],"scrapedAt":"2025-05-08T04:05:26.017Z","googleFoodUrl":null,"hotelAds":[],"openingHours":[],"peopleAlsoSearch":[],"placesTags":[],"reviewsTags":[],"additionalInfo":{"Popular for":[{"Solo dining":true}],"Amenities":[{"Restroom":true}],"Atmosphere":[{"Cozy":true}],"Crowd":[{"Groups":true}],"Children":[{"Good for kids":true}]},"gasPrices":[],"url":"https://www.google.com/maps/search/?api=1&query=Panda%20Wock&query_place_id=ChIJsT6ETAB98CERiE7eXxbhVYA","searchPageUrl":"https://www.google.com/maps/search/restaurant%20chinois%20/@-18.91814329765616,47.53417819367214,16z?hl=en","searchString":"restaurant chinois ","language":"en","rank":34,"isAdvertisement":false,"kgmid":"/g/11y3kf6t2z"},{"title":"Lakoziako","price":null,"categoryName":"Chinese restaurant","address":"3GWF+4FP, Antananarivo, Madagascar","neighborhood":null,"street":"3GWF+4FP","city":"Antananarivo","postalCode":null,"state":null,"countryCode":"MG","phone":"+261 34 79 061 61","phoneUnformatted":"+261347906161","claimThisBusiness":true,"location":{"lat":-18.9046583,"lng":47.5236933},"totalScore":4.3,"permanentlyClosed":false,"temporarilyClosed":false,"placeId":"ChIJHewemQF-8CER1HOZ64PcEgU","categories":["Chinese restaurant"],"fid":"0x21f07e01991eec1d:0x512dc83eb9973d4","cid":"365596978921960404","reviewsCount":4,"imagesCount":1,"imageCategories":[],"scrapedAt":"2025-05-08T04:05:27.128Z","googleFoodUrl":null,"hotelAds":[],"openingHours":[{"day":"Monday","hours":"8 AM to 4:30 PM"},{"day":"Tuesday","hours":"Closed"},{"day":"Wednesday","hours":"8 AM to 4:30 PM"},{"day":"Thursday","hours":"8 AM to 4:30 PM"},{"day":"Friday","hours":"8 AM to 4:30 PM"},{"day":"Saturday","hours":"8 AM to 9:30 PM"},{"day":"Sunday","hours":"8 AM to 9:30 PM"}],"peopleAlsoSearch":[],"placesTags":[],"reviewsTags":[],"additionalInfo":{"Service options":[{"Dine-in":true}],"Popular for":[{"Solo dining":true}],"Offerings":[{"Small plates":true}],"Amenities":[{"Restroom":true}],"Atmosphere":[{"Casual":true},{"Cozy":true}],"Crowd":[{"Groups":true},{"Tourists":true}],"Children":[{"Good for kids":true}]},"gasPrices":[],"url":"https://www.google.com/maps/search/?api=1&query=Lakoziako&query_place_id=ChIJHewemQF-8CER1HOZ64PcEgU","searchPageUrl":"https://www.google.com/maps/search/restaurant%20chinois%20/@-18.901881102343836,47.53417819367214,16z?hl=en","searchString":"restaurant chinois ","language":"en","rank":4,"isAdvertisement":false,"imageUrl":"https://lh3.googleusercontent.com/gps-cs-s/AC9h4noluhBHxCF3eR_BjB2Tgv1_kGLIXT0kCPDGzYa20UwtX1B_dFS9_o9MSz8n9RmUO2y_PhpLC3nVAdrH-eNBYcbRJzdc-qtENlDgctVWbkbbsiIIzZ1lznr21HT4znTalq5AEM2F=w408-h544-k-no","kgmid":"/g/11f50t6nv7"},{"title":"Gargotte Pangalane","price":null,"categoryName":"Chinese restaurant","address":"IIR9, Rue Foloalindahy Malagasy, Antananarivo 101, Madagascar","neighborhood":"Soarano","street":"IIR9, Rue Foloalindahy Malagasy","city":"Antananarivo","postalCode":"101","state":null,"countryCode":"MG","claimThisBusiness":true,"location":{"lat":-18.9015638,"lng":47.537504},"totalScore":3.7,"permanentlyClosed":false,"temporarilyClosed":false,"placeId":"ChIJ2YOXRs-H8CERxiHWAQku4fQ","categories":["Chinese restaurant"],"fid":"0x21f087cf469783d9:0xf4e12e0901d621c6","cid":"17645435431234707910","reviewsCount":3,"imagesCount":4,"imageCategories":[],"scrapedAt":"2025-05-08T04:05:27.128Z","googleFoodUrl":null,"hotelAds":[],"openingHours":[],"peopleAlsoSearch":[],"placesTags":[],"reviewsTags":[],"additionalInfo":{"Service options":[{"Takeout":true},{"Dine-in":true}],"Dining options":[{"Lunch":true},{"Dinner":true}],"Amenities":[{"Restroom":true}],"Atmosphere":[{"Cozy":true}],"Crowd":[{"Groups":true}],"Children":[{"Good for kids":true}]},"gasPrices":[],"url":"https://www.google.com/maps/search/?api=1&query=Gargotte%20Pangalane&query_place_id=ChIJ2YOXRs-H8CERxiHWAQku4fQ","searchPageUrl":"https://www.google.com/maps/search/restaurant%20chinois%20/@-18.901881102343836,47.53417819367214,16z?hl=en","searchString":"restaurant chinois ","language":"en","rank":6,"isAdvertisement":false,"imageUrl":"https://lh3.googleusercontent.com/gps-cs-s/AC9h4npibY1__jGyvPX4JI16xCi-BKALReSic7dSID-b4Fu2z-xEiF-IEPffEyEJJM2CyiqtVR_YN2B_0anu7-CxRJzhALUS39KxhCrNlPpM2IlRt7hJtN8NpC_RaLPNlvMLnX3hRidMNw=w408-h725-k-no","kgmid":"/g/11txn4hygw"},{"title":"Hotel New Century","price":null,"categoryName":"Chinese restaurant","address":"3GWF+J7P, Antananarivo 101, Madagascar","neighborhood":null,"street":"3GWF+J7P","city":"Antananarivo","postalCode":"101","state":null,"countryCode":"MG","phone":"+261 33 29 661 68","phoneUnformatted":"+261332966168","claimThisBusiness":true,"location":{"lat":-18.9034125,"lng":47.5232031},"totalScore":3.5,"permanentlyClosed":false,"temporarilyClosed":false,"placeId":"ChIJOR9-7gF-8CERAeZMb_00ypQ","categories":["Chinese restaurant"],"fid":"0x21f07e01ee7e1f39:0x94ca34fd6f4ce601","cid":"10721440126007567873","reviewsCount":11,"imagesCount":3,"imageCategories":[],"scrapedAt":"2025-05-08T04:05:27.129Z","googleFoodUrl":null,"hotelAds":[],"openingHours":[{"day":"Monday","hours":"7 AM to 9 PM"},{"day":"Tuesday","hours":"7 AM to 9 PM"},{"day":"Wednesday","hours":"7 AM to 9 PM"},{"day":"Thursday","hours":"7 AM to 9 PM"},{"day":"Friday","hours":"7 AM to 9 PM"},{"day":"Saturday","hours":"7 AM to 9 PM"},{"day":"Sunday","hours":"7 AM to 9 PM"}],"peopleAlsoSearch":[],"placesTags":[],"reviewsTags":[],"additionalInfo":{"Service options":[{"Takeout":true},{"Dine-in":true}],"Highlights":[{"Great coffee":true}],"Popular for":[{"Lunch":true},{"Dinner":true},{"Solo dining":true}],"Offerings":[{"Alcohol":true},{"Beer":true},{"Coffee":true},{"Small plates":true}],"Dining options":[{"Lunch":true},{"Dinner":true},{"Dessert":true}],"Amenities":[{"Restroom":true}],"Atmosphere":[{"Casual":true},{"Cozy":true}],"Crowd":[{"Groups":true},{"Tourists":true}],"Planning":[{"Accepts reservations":true}],"Children":[{"Good for kids":true}]},"gasPrices":[],"url":"https://www.google.com/maps/search/?api=1&query=Hotel%20New%20Century&query_place_id=ChIJOR9-7gF-8CERAeZMb_00ypQ","searchPageUrl":"https://www.google.com/maps/search/restaurant%20chinois%20/@-18.901881102343836,47.53417819367214,16z?hl=en","searchString":"restaurant chinois ","language":"en","rank":9,"isAdvertisement":false,"imageUrl":"https://lh3.googleusercontent.com/gps-cs-s/AC9h4nqbg-80XDLHQARioYMnBaetC2A9CsQwwzDXHF_60MsWJYQ8347UJrQ3M2XWvxnxcWoyWyLG14Z0uHwN35Ja4Fez2cgcNDLClTGlcMuKTYYoYWAq7SzFA81Yb1Euz9Vf75Or3wFIWQ=w408-h306-k-no","kgmid":"/g/11cp5j2g36"},{"title":"Dragon rouge","price":null,"categoryName":"Chinese restaurant","address":"3GXC+VQ8, Antananarivo, Madagascar","neighborhood":null,"street":"3GXC+VQ8","city":"Antananarivo","postalCode":null,"state":null,"countryCode":"MG","phone":"+261 34 13 058 26","phoneUnformatted":"+261341305826","claimThisBusiness":true,"location":{"lat":-18.9003469,"lng":47.5219587},"totalScore":3,"permanentlyClosed":false,"temporarilyClosed":false,"placeId":"ChIJC747VQCB8CERpBgKPkRZAkg","categories":["Chinese restaurant"],"fid":"0x21f08100553bbe0b:0x480259443e0a18a4","cid":"5188807870317729956","reviewsCount":2,"imagesCount":null,"imageCategories":[],"scrapedAt":"2025-05-08T04:05:27.129Z","googleFoodUrl":null,"hotelAds":[],"openingHours":[],"peopleAlsoSearch":[],"placesTags":[],"reviewsTags":[],"additionalInfo":{"Service options":[{"Dine-in":true}],"Amenities":[{"Restroom":true}],"Atmosphere":[{"Cozy":true}],"Crowd":[{"Groups":true}],"Children":[{"Good for kids":true}]},"gasPrices":[],"url":"https://www.google.com/maps/search/?api=1&query=Dragon%20rouge&query_place_id=ChIJC747VQCB8CERpBgKPkRZAkg","searchPageUrl":"https://www.google.com/maps/search/restaurant%20chinois%20/@-18.901881102343836,47.53417819367214,16z?hl=en","searchString":"restaurant chinois ","language":"en","rank":12,"isAdvertisement":false,"kgmid":"/g/11vwd702d5"},{"title":"Fleuve Rouge (Red River)","price":null,"categoryName":"Vietnamese restaurant","address":"Rue Lietna Andriamaromanana Albert, Antananarivo 101, Madagascar","neighborhood":"Soarano","street":"Rue Lietna Andriamaromanana Albert","city":"Antananarivo","postalCode":"101","state":null,"countryCode":"MG","phone":"+261 33 15 158 58","phoneUnformatted":"+261331515858","claimThisBusiness":false,"location":{"lat":-18.9036898,"lng":47.5289256},"totalScore":4.4,"permanentlyClosed":false,"temporarilyClosed":false,"placeId":"ChIJC670ZlWH8CERKDWIsG7sw7k","categories":["Vietnamese restaurant"],"fid":"0x21f0875566f4ae0b:0xb9c3ec6eb0883528","cid":"13385802477627520296","reviewsCount":54,"imagesCount":64,"imageCategories":[],"scrapedAt":"2025-05-08T04:05:27.129Z","googleFoodUrl":null,"hotelAds":[],"openingHours":[{"day":"Monday","hours":"12 to 2 PM, 6 to 10 PM"},{"day":"Tuesday","hours":"12 to 2 PM, 6 to 10 PM"},{"day":"Wednesday","hours":"12 to 2 PM, 6 to 10 PM"},{"day":"Thursday","hours":"12 to 2 PM, 6 to 10 PM"},{"day":"Friday","hours":"12 to 2 PM, 6 to 10 PM"},{"day":"Saturday","hours":"12 to 2 PM, 6 to 10 PM"},{"day":"Sunday","hours":"12 to 2 PM, 6 to 10 PM"}],"peopleAlsoSearch":[],"placesTags":[],"reviewsTags":[],"additionalInfo":{"Service options":[{"Takeout":true},{"Dine-in":true},{"Delivery":false}],"Highlights":[{"Great coffee":true},{"Great dessert":true}],"Popular for":[{"Lunch":true},{"Dinner":true},{"Solo dining":true}],"Offerings":[{"Alcohol":true},{"Beer":true},{"Cocktails":true},{"Coffee":true},{"Hard liquor":true},{"Small plates":true},{"Wine":true}],"Dining options":[{"Lunch":true},{"Dinner":true},{"Catering":true},{"Dessert":true}],"Amenities":[{"Bar onsite":true},{"Restroom":true}],"Atmosphere":[{"Casual":true},{"Cozy":true},{"Quiet":true},{"Trendy":true}],"Crowd":[{"College students":true},{"Groups":true},{"Tourists":true}],"Planning":[{"Accepts reservations":true}],"Children":[{"Good for kids":true}]},"gasPrices":[],"url":"https://www.google.com/maps/search/?api=1&query=Fleuve%20Rouge%20(Red%20River)&query_place_id=ChIJC670ZlWH8CERKDWIsG7sw7k","searchPageUrl":"https://www.google.com/maps/search/restaurant%20chinois%20/@-18.901881102343836,47.53417819367214,16z?hl=en","searchString":"restaurant chinois ","language":"en","rank":17,"isAdvertisement":false,"imageUrl":"https://lh3.googleusercontent.com/gps-cs-s/AC9h4nqmd3KG5ab3C5-g5Q6FJJdAb6uZ20X3PlQ_dkT1Bux1-bFUlj2esj_DS6nfzbyrgpcI4_ToehJhiF3XwRb9_a6cQPdT8v11BH9Eh2Kyosul3rFB8kwxrqlDPUZeZegt8XRGBvoMDQ=w408-h306-k-no","kgmid":"/g/1ptxvrqc2"},{"title":"中国餐馆","price":null,"categoryName":"Chinese restaurant","address":"3GVM+3M8, Lalana Pastora Rabeony Hans, Antananarivo, Madagascar","neighborhood":"Soarano","street":"3GVM+3M8, Lalana Pastora Rabeony Hans","city":"Antananarivo","postalCode":null,"state":null,"countryCode":"MG","claimThisBusiness":true,"location":{"lat":-18.90734,"lng":47.5342068},"permanentlyClosed":false,"temporarilyClosed":false,"placeId":"ChIJ65YPNIx98CER0_OX0rOZ_Es","categories":["Chinese restaurant"],"fid":"0x21f07d8c340f96eb:0x4bfc99b3d297f3d3","cid":"5475420244587049939","reviewsCount":0,"imagesCount":null,"imageCategories":[],"scrapedAt":"2025-05-08T04:05:27.129Z","googleFoodUrl":null,"hotelAds":[],"openingHours":[],"peopleAlsoSearch":[],"placesTags":[],"reviewsTags":[],"additionalInfo":{"Service options":[{"Takeout":true},{"Dine-in":true}],"Popular for":[{"Lunch":true},{"Dinner":true},{"Solo dining":true}],"Offerings":[{"Small plates":true}],"Dining options":[{"Lunch":true},{"Dinner":true}],"Amenities":[{"Restroom":true}],"Atmosphere":[{"Casual":true},{"Cozy":true}],"Crowd":[{"Groups":true},{"Tourists":true}],"Planning":[{"Accepts reservations":true}],"Children":[{"Good for kids":true}]},"gasPrices":[],"url":"https://www.google.com/maps/search/?api=1&query=%E4%B8%AD%E5%9B%BD%E9%A4%90%E9%A6%86&query_place_id=ChIJ65YPNIx98CER0_OX0rOZ_Es","searchPageUrl":"https://www.google.com/maps/search/restaurant%20chinois%20/@-18.901881102343836,47.53417819367214,16z?hl=en","searchString":"restaurant chinois ","language":"en","rank":18,"isAdvertisement":false,"kgmid":"/g/11q8wggvz3"},{"title":"Tianfu fondu chinoise（天府火锅）","price":null,"categoryName":"Restaurant","address":"5 Lalana Andriantsilavo, Antananarivo 101, Madagascar","neighborhood":null,"street":"5 Lalana Andriantsilavo","city":"Antananarivo","postalCode":"101","state":null,"countryCode":"MG","phone":"+261 32 89 489 22","phoneUnformatted":"+261328948922","claimThisBusiness":false,"location":{"lat":-18.9059389,"lng":47.5243852},"totalScore":5,"permanentlyClosed":false,"temporarilyClosed":false,"placeId":"ChIJf1kWqp9_8CER9eal1514dK4","categories":["Restaurant"],"fid":"0x21f07f9faa16597f:0xae74789dd7a5e6f5","cid":"12570805079221069557","reviewsCount":2,"imagesCount":21,"imageCategories":[],"scrapedAt":"2025-05-08T04:05:27.129Z","googleFoodUrl":null,"hotelAds":[],"openingHours":[{"day":"Monday","hours":"11 AM to 2 PM, 5 to 8:30 PM"},{"day":"Tuesday","hours":"11 AM to 2 PM, 5 to 8:30 PM"},{"day":"Wednesday","hours":"11 AM to 2 PM, 5 to 8:30 PM"},{"day":"Thursday","hours":"11 AM to 2 PM, 5 to 8:30 PM"},{"day":"Friday","hours":"11 AM to 2 PM, 5 to 8:30 PM"},{"day":"Saturday","hours":"11 AM to 2 PM, 5 to 8:30 PM"},{"day":"Sunday","hours":"11 AM to 2 PM, 5 to 8:30 PM"}],"peopleAlsoSearch":[],"placesTags":[],"reviewsTags":[],"additionalInfo":{"Service options":[{"No-contact delivery":true},{"Delivery":true},{"Takeout":true},{"Dine-in":true}],"Popular for":[{"Dinner":true},{"Solo dining":true}],"Offerings":[{"Alcohol":true},{"Beer":true},{"Small plates":true},{"Wine":true}],"Dining options":[{"Lunch":true},{"Dinner":true},{"Dessert":true}],"Amenities":[{"Restroom":true}],"Atmosphere":[{"Casual":true},{"Cozy":true}],"Crowd":[{"Groups":true},{"Tourists":true}],"Planning":[{"Accepts reservations":true}],"Payments":[{"Cash-only":true}],"Children":[{"Good for kids":true}],"Parking":[{"Free parking lot":true},{"Free street parking":true}]},"gasPrices":[],"url":"https://www.google.com/maps/search/?api=1&query=Tianfu%20fondu%20chinoise%EF%BC%88%E5%A4%A9%E5%BA%9C%E7%81%AB%E9%94%85%EF%BC%89&query_place_id=ChIJf1kWqp9_8CER9eal1514dK4","searchPageUrl":"https://www.google.com/maps/search/restaurant%20chinois%20/@-18.901881102343836,47.53417819367214,16z?hl=en","searchString":"restaurant chinois ","language":"en","rank":19,"isAdvertisement":false,"imageUrl":"https://lh3.googleusercontent.com/gps-cs-s/AC9h4npItmJKNzARIIl6Dt0dJweTZAtpx2qqcueh5E-62spT5fNYJk5WZQ7k_DYFKmnJrEMgcVsgQfn6JKDq_B_qph5JgSsEuFLujxivotzea6grLHTSYyT8AnkRjO7bUAD7UacuXbeXsA=w426-h240-k-no","kgmid":"/g/11y47w54fh"},{"title":"Café de NanShan 南山咖啡西餐厅","price":null,"categoryName":"Mandarin restaurant","address":"101, Antananarivo 101, Madagascar","neighborhood":null,"street":"101","city":"Antananarivo","postalCode":"101","state":null,"countryCode":"MG","phone":"+261 38 83 744 18","phoneUnformatted":"+261388374418","claimThisBusiness":true,"location":{"lat":-18.901389,"lng":47.5255873},"permanentlyClosed":false,"temporarilyClosed":false,"placeId":"ChIJqSv4BsuB8CER9tw6wVOl158","categories":["Mandarin restaurant"],"fid":"0x21f081cb06f82ba9:0x9fd7a553c13adcf6","cid":"11517856351166061814","reviewsCount":0,"imagesCount":null,"imageCategories":[],"scrapedAt":"2025-05-08T04:05:27.900Z","googleFoodUrl":null,"hotelAds":[],"openingHours":[{"day":"Monday","hours":"8 AM to 8 PM"},{"day":"Tuesday","hours":"8 AM to 8 PM"},{"day":"Wednesday","hours":"8 AM to 8 PM"},{"day":"Thursday","hours":"8 AM to 8 PM"},{"day":"Friday","hours":"8 AM to 8 PM"},{"day":"Saturday","hours":"8 AM to 8 PM"},{"day":"Sunday","hours":"8 AM to 8 PM"}],"peopleAlsoSearch":[],"placesTags":[],"reviewsTags":[],"additionalInfo":{"Service options":[{"Curbside pickup":true},{"No-contact delivery":true},{"Delivery":true},{"Takeout":true},{"Dine-in":true}],"Highlights":[{"Great coffee":true}],"Popular for":[{"Solo dining":true}],"Offerings":[{"Coffee":true},{"Halal food":true},{"Small plates":true}],"Dining options":[{"Lunch":true},{"Dinner":true},{"Dessert":true}],"Amenities":[{"Restroom":true}],"Atmosphere":[{"Cozy":true},{"Quiet":true}],"Crowd":[{"Groups":true}],"Planning":[{"Accepts reservations":true}],"Children":[{"Good for kids":true}]},"gasPrices":[],"url":"https://www.google.com/maps/search/?api=1&query=Caf%C3%A9%20de%20NanShan%20%E5%8D%97%E5%B1%B1%E5%92%96%E5%95%A1%E8%A5%BF%E9%A4%90%E5%8E%85&query_place_id=ChIJqSv4BsuB8CER9tw6wVOl158","searchPageUrl":"https://www.google.com/maps/search/restaurant%20chinois%20/@-18.901881102343836,47.53417819367214,16z?hl=en","searchString":"restaurant chinois ","language":"en","rank":30,"isAdvertisement":false,"kgmid":"/g/11ss74vh11"},{"title":"Fortuna Tana","price":null,"categoryName":"Chinese restaurant","address":"3GJ9+JC3, IMM, Antananarivo, Madagascar","neighborhood":null,"street":"3GJ9+JC3, IMM","city":"Antananarivo","postalCode":null,"state":null,"countryCode":"MG","phone":"+261 38 63 366 66","phoneUnformatted":"+261386336666","claimThisBusiness":false,"location":{"lat":-18.8987591,"lng":47.5210699},"totalScore":3.7,"permanentlyClosed":false,"temporarilyClosed":false,"placeId":"ChIJwzVum52B8CERk6CYDoKrXec","categories":["Chinese restaurant"],"fid":"0x21f0819d9b6e35c3:0xe75dab820e98a093","cid":"16671669970674426003","reviewsCount":6,"reviewsDistribution":{"oneStar":1,"twoStar":1,"threeStar":0,"fourStar":1,"fiveStar":3},"imagesCount":18,"imageCategories":[],"scrapedAt":"2025-05-08T04:05:27.901Z","googleFoodUrl":null,"hotelAds":[],"openingHours":[{"day":"Monday","hours":"9:30 AM to 9:30 PM"},{"day":"Tuesday","hours":"9:30 AM to 9:30 PM"},{"day":"Wednesday","hours":"9:30 AM to 9:30 PM"},{"day":"Thursday","hours":"9:30 AM to 9:30 PM"},{"day":"Friday","hours":"9:30 AM to 9:30 PM"},{"day":"Saturday","hours":"10:30 AM to 10 PM"},{"day":"Sunday","hours":"11 AM to 10 PM"}],"peopleAlsoSearch":[],"placesTags":[],"reviewsTags":[],"additionalInfo":{"Service options":[{"Takeout":true},{"Dine-in":true}],"Highlights":[{"Great coffee":true},{"Great dessert":true}],"Popular for":[{"Lunch":true},{"Solo dining":true}],"Offerings":[{"Coffee":true},{"Small plates":true}],"Dining options":[{"Lunch":true},{"Dessert":true}],"Amenities":[{"Restroom":true}],"Atmosphere":[{"Casual":true},{"Cozy":true}],"Crowd":[{"Groups":true},{"Tourists":true}],"Planning":[{"Accepts reservations":true}],"Children":[{"Good for kids":true}],"Parking":[{"Free parking lot":true}]},"gasPrices":[],"url":"https://www.google.com/maps/search/?api=1&query=Fortuna%20Tana&query_place_id=ChIJwzVum52B8CERk6CYDoKrXec","searchPageUrl":"https://www.google.com/maps/search/restaurant%20chinois%20/@-18.901881102343836,47.53417819367214,16z?hl=en","searchString":"restaurant chinois ","language":"en","rank":32,"isAdvertisement":false,"imageUrl":"https://lh3.googleusercontent.com/p/AF1QipNCle2odNvBROX9WF0MOTaBH7XAF4vgG5lYSrhJ=w408-h544-k-no","kgmid":"/g/11vsbq01fw"},{"title":"Tianjie food (天街 中华料理)","price":null,"categoryName":"Chinese restaurant","address":"3GVM+QG6, Antananarivo, Madagascar","neighborhood":"Soarano","street":"3GVM+QG6","city":"Antananarivo","postalCode":null,"state":null,"countryCode":"MG","phone":"+261 34 29 283 82","phoneUnformatted":"+261342928382","claimThisBusiness":true,"location":{"lat":-18.9054453,"lng":47.5337796},"permanentlyClosed":false,"temporarilyClosed":false,"placeId":"ChIJV88zWACH8CERe6C1R9Yddfk","categories":["Chinese restaurant"],"fid":"0x21f087005833cf57:0xf9751dd647b5a07b","cid":"17975306293882495099","reviewsCount":0,"imagesCount":null,"imageCategories":[],"scrapedAt":"2025-05-08T04:05:27.901Z","googleFoodUrl":null,"hotelAds":[],"openingHours":[{"day":"Monday","hours":"8:30 AM to 8:30 PM"},{"day":"Tuesday","hours":"8:30 AM to 8:30 PM"},{"day":"Wednesday","hours":"8:30 AM to 8:30 PM"},{"day":"Thursday","hours":"8:30 AM to 8:30 PM"},{"day":"Friday","hours":"8:30 AM to 8:30 PM"},{"day":"Saturday","hours":"8:30 AM to 8:30 PM"},{"day":"Sunday","hours":"Closed"}],"peopleAlsoSearch":[],"placesTags":[],"reviewsTags":[],"additionalInfo":{"Popular for":[{"Solo dining":true}],"Dining options":[{"Lunch":true}],"Atmosphere":[{"Cozy":true}],"Crowd":[{"Groups":true}],"Children":[{"Good for kids":true}]},"gasPrices":[],"url":"https://www.google.com/maps/search/?api=1&query=Tianjie%20food%20(%E5%A4%A9%E8%A1%97%20%E4%B8%AD%E5%8D%8E%E6%96%99%E7%90%86)&query_place_id=ChIJV88zWACH8CERe6C1R9Yddfk","searchPageUrl":"https://www.google.com/maps/search/restaurant%20chinois%20/@-18.901881102343836,47.53417819367214,16z?hl=en","searchString":"restaurant chinois ","language":"en","rank":35,"isAdvertisement":false,"kgmid":"/g/11wjlkg51_"},{"title":"National Center","price":null,"categoryName":"Chinese restaurant","address":"3GWF+WWR, Antananarivo, Madagascar","neighborhood":null,"street":"3GWF+WWR","city":"Antananarivo","postalCode":null,"state":null,"countryCode":"MG","claimThisBusiness":true,"location":{"lat":-18.902637,"lng":47.5247546},"totalScore":4,"permanentlyClosed":false,"temporarilyClosed":false,"placeId":"ChIJKdq8S3iB8CERj76wOUkMrXk","categories":["Chinese restaurant"],"fid":"0x21f081784bbcda29:0x79ad0c4939b0be8f","cid":"8767677558200254095","reviewsCount":5,"reviewsDistribution":{"oneStar":0,"twoStar":1,"threeStar":0,"fourStar":2,"fiveStar":2},"imagesCount":null,"imageCategories":[],"scrapedAt":"2025-05-08T04:05:27.901Z","googleFoodUrl":null,"hotelAds":[],"openingHours":[{"day":"Monday","hours":"8:30 AM to 5 PM"},{"day":"Tuesday","hours":"8:30 AM to 5 PM"},{"day":"Wednesday","hours":"8:30 AM to 5 PM"},{"day":"Thursday","hours":"8:30 AM to 5 PM"},{"day":"Friday","hours":"8:30 AM to 5 PM"},{"day":"Saturday","hours":"8:30 AM to 5 PM"},{"day":"Sunday","hours":"Closed"}],"peopleAlsoSearch":[],"placesTags":[],"reviewsTags":[],"additionalInfo":{"Dining options":[{"Lunch":true},{"Dinner":true}],"Crowd":[{"Groups":true}],"Children":[{"Good for kids":true}]},"gasPrices":[],"url":"https://www.google.com/maps/search/?api=1&query=National%20Center&query_place_id=ChIJKdq8S3iB8CERj76wOUkMrXk","searchPageUrl":"https://www.google.com/maps/search/restaurant%20chinois%20/@-18.901881102343836,47.53417819367214,16z?hl=en","searchString":"restaurant chinois ","language":"en","rank":37,"isAdvertisement":false,"kgmid":"/g/11j38mn3js"},{"title":"DRAGON ROYAL Restaurant","price":null,"categoryName":"Restaurant","address":"Rue Me Albertini, Antananarivo, Madagascar","neighborhood":"Soarano","street":"Rue Me Albertini","city":"Antananarivo","postalCode":null,"state":null,"countryCode":"MG","phone":"+261 34 14 579 79","phoneUnformatted":"+261341457979","claimThisBusiness":false,"location":{"lat":-18.8945895,"lng":47.5283391},"totalScore":4.2,"permanentlyClosed":false,"temporarilyClosed":false,"placeId":"ChIJyRgMf02H8CER54IqgqErHXc","categories":["Restaurant"],"fid":"0x21f0874d7f0c18c9:0x771d2ba1822a82e7","cid":"8583064437511586535","reviewsCount":18,"reviewsDistribution":{"oneStar":1,"twoStar":0,"threeStar":3,"fourStar":5,"fiveStar":9},"imagesCount":40,"imageCategories":[],"scrapedAt":"2025-05-08T04:05:27.901Z","googleFoodUrl":null,"hotelAds":[],"openingHours":[],"peopleAlsoSearch":[],"placesTags":[],"reviewsTags":[],"additionalInfo":{"Service options":[{"Takeout":true},{"Dine-in":true}],"Highlights":[{"Great cocktails":true},{"Great coffee":true},{"Great dessert":true}],"Popular for":[{"Lunch":true},{"Dinner":true},{"Solo dining":true}],"Offerings":[{"Alcohol":true},{"Beer":true},{"Cocktails":true},{"Coffee":true},{"Hard liquor":true},{"Small plates":true},{"Wine":true}],"Dining options":[{"Lunch":true},{"Dinner":true},{"Dessert":true}],"Amenities":[{"Restroom":true}],"Atmosphere":[{"Casual":true},{"Cozy":true}],"Crowd":[{"Groups":true},{"Tourists":true}],"Planning":[{"Accepts reservations":true}],"Children":[{"Good for kids":true}]},"gasPrices":[],"url":"https://www.google.com/maps/search/?api=1&query=DRAGON%20ROYAL%20Restaurant&query_place_id=ChIJyRgMf02H8CER54IqgqErHXc","searchPageUrl":"https://www.google.com/maps/search/restaurant%20chinois%20/@-18.901881102343836,47.53417819367214,16z?hl=en","searchString":"restaurant chinois ","language":"en","rank":38,"isAdvertisement":false,"imageUrl":"https://lh3.googleusercontent.com/p/AF1QipNNtwqpbXDLmJAKPXh3EmxceGs__tEbYd_c9TK9=w408-h306-k-no","kgmid":"/g/11lgl_jl3l"},{"title":"Bonjuk&Bibimbap Cafe Ankorondrano","price":null,"categoryName":"Restaurant","address":"Lot LVP13, Antananarivo, Madagascar","neighborhood":null,"street":"Lot LVP13","city":"Antananarivo","postalCode":null,"state":null,"countryCode":"MG","phone":"+261 34 19 705 00","phoneUnformatted":"+261341970500","claimThisBusiness":false,"location":{"lat":-18.8943475,"lng":47.5229442},"totalScore":4.3,"permanentlyClosed":false,"temporarilyClosed":false,"placeId":"ChIJRyuEjP998CERz4k_yY3g_ck","categories":["Restaurant","Delivery service","Korean restaurant","Lunch restaurant"],"fid":"0x21f07dff8c842b47:0xc9fde08dc93f89cf","cid":"14555036470302706127","reviewsCount":53,"reviewsDistribution":{"oneStar":1,"twoStar":3,"threeStar":5,"fourStar":13,"fiveStar":31},"imagesCount":143,"imageCategories":[],"scrapedAt":"2025-05-08T04:05:27.902Z","googleFoodUrl":null,"hotelAds":[],"openingHours":[{"day":"Monday","hours":"9 AM to 10 PM"},{"day":"Tuesday","hours":"9 AM to 10 PM"},{"day":"Wednesday","hours":"9 AM to 10 PM"},{"day":"Thursday","hours":"9 AM to 10 PM"},{"day":"Friday","hours":"9 AM to 10 PM"},{"day":"Saturday","hours":"9 AM to 10 PM"},{"day":"Sunday","hours":"9 AM to 10 PM"}],"peopleAlsoSearch":[],"placesTags":[],"reviewsTags":[],"additionalInfo":{"Service options":[{"Outdoor seating":true},{"Delivery":true},{"Takeout":true},{"Dine-in":true}],"Highlights":[{"Great coffee":true},{"Great dessert":true},{"Great tea selection":true},{"Live music":true}],"Popular for":[{"Lunch":true},{"Dinner":true},{"Solo dining":true}],"Offerings":[{"Coffee":true},{"Small plates":true}],"Dining options":[{"Brunch":true},{"Lunch":true},{"Dinner":true},{"Catering":true},{"Dessert":true},{"Seating":true}],"Amenities":[{"Restroom":true},{"Wi-Fi":true},{"Free Wi-Fi":true}],"Atmosphere":[{"Casual":true},{"Cozy":true},{"Trendy":true}],"Crowd":[{"College students":true},{"Family-friendly":true},{"Groups":true},{"Tourists":true}],"Planning":[{"Accepts reservations":true}],"Children":[{"Good for kids":true}],"Parking":[{"Free parking lot":true}]},"gasPrices":[],"url":"https://www.google.com/maps/search/?api=1&query=Bonjuk%26Bibimbap%20Cafe%20Ankorondrano&query_place_id=ChIJRyuEjP998CERz4k_yY3g_ck","searchPageUrl":"https://www.google.com/maps/search/restaurant%20chinois%20/@-18.901881102343836,47.53417819367214,16z?hl=en","searchString":"restaurant chinois ","language":"en","rank":39,"isAdvertisement":false,"imageUrl":"https://lh3.googleusercontent.com/gps-cs-s/AC9h4npJgGLhGeqHyv9cvoTtE7zxADiTTbUG_TQn1DB42IJT8SWIiXBOwhQDEgTVXKSxMd1_qxsR2-ErSLuKNc6tbhipE6GLITgJeky3xRjb1JRhSjFfY0HjrPf_WYWK9QkWfWC3PNdncA=w408-h306-k-no","kgmid":"/g/11fwhm7ynb"},{"title":"Sakamanga Restaurant","price":null,"categoryName":"European restaurant","address":"3GRC+PFF, Antananarivo, Madagascar","neighborhood":null,"street":"3GRC+PFF","city":"Antananarivo","postalCode":null,"state":null,"countryCode":"MG","claimThisBusiness":true,"location":{"lat":-18.9081885,"lng":47.5211699},"totalScore":4.4,"permanentlyClosed":false,"temporarilyClosed":false,"placeId":"ChIJ6TxNN8l_8CERsZSYO5NsFoE","categories":["European restaurant"],"fid":"0x21f07fc9374d3ce9:0x81166c933b9894b1","cid":"9301741459996185777","reviewsCount":120,"reviewsDistribution":{"oneStar":6,"twoStar":4,"threeStar":6,"fourStar":30,"fiveStar":74},"imagesCount":330,"imageCategories":[],"scrapedAt":"2025-05-08T04:05:27.902Z","googleFoodUrl":null,"hotelAds":[],"openingHours":[{"day":"Monday","hours":"Open 24 hours"},{"day":"Tuesday","hours":"Open 24 hours"},{"day":"Wednesday","hours":"Open 24 hours"},{"day":"Thursday","hours":"Open 24 hours"},{"day":"Friday","hours":"Open 24 hours"},{"day":"Saturday","hours":"Open 24 hours"},{"day":"Sunday","hours":"Open 24 hours"}],"peopleAlsoSearch":[],"placesTags":[],"reviewsTags":[],"additionalInfo":{"Service options":[{"Outdoor seating":true},{"Takeout":true},{"Dine-in":true}],"Highlights":[{"Great beer selection":true},{"Great cocktails":true},{"Great coffee":true},{"Great dessert":true},{"Great tea selection":true},{"Great wine list":true},{"Live music":true}],"Popular for":[{"Breakfast":true},{"Lunch":true},{"Dinner":true},{"Solo dining":true}],"Accessibility":[{"Wheelchair accessible parking lot":true},{"Wheelchair accessible restroom":true}],"Offerings":[{"Alcohol":true},{"Beer":true},{"Cocktails":true},{"Coffee":true},{"Hard liquor":true},{"Quick bite":true},{"Small plates":true},{"Vegan options":true},{"Vegetarian options":true},{"Wine":true}],"Dining options":[{"Breakfast":true},{"Brunch":true},{"Lunch":true},{"Dinner":true},{"Catering":true},{"Dessert":true},{"Seating":true}],"Amenities":[{"Bar onsite":true},{"Restroom":true}],"Atmosphere":[{"Casual":true},{"Cozy":true},{"Quiet":true},{"Romantic":true},{"Trendy":true},{"Upscale":true}],"Crowd":[{"College students":true},{"Groups":true},{"Tourists":true}],"Planning":[{"Accepts reservations":true}],"Payments":[{"Credit cards":true}],"Children":[{"Good for kids":true},{"High chairs":true},{"Kids' menu":true}],"Parking":[{"Free parking lot":true},{"Free street parking":true}]},"gasPrices":[],"url":"https://www.google.com/maps/search/?api=1&query=Sakamanga%20Restaurant&query_place_id=ChIJ6TxNN8l_8CERsZSYO5NsFoE","searchPageUrl":"https://www.google.com/maps/search/restaurant%20chinois%20/@-18.901881102343836,47.53417819367214,16z?hl=en","searchString":"restaurant chinois ","language":"en","rank":40,"isAdvertisement":false,"imageUrl":"https://lh3.googleusercontent.com/gps-cs-s/AC9h4npxbzHEFwNnT_covXeURngNh_LxN_eKlPKytJalEokWBhRRCtzzJRS2F1GMyg3SlUJxCdB2SSYJQD4Uu27voDqRvvwoQcfv1WbzxfkEWII2rhW24WjAmZsfFwqKOIEgTe8EtcE=w408-h408-k-no","kgmid":"/g/11fklyc340"},{"title":"Pan Asia","price":null,"categoryName":"Restaurant","address":"3GWF+QHR, 2, Antananarivo, Madagascar","neighborhood":null,"street":"3GWF+QHR, 2","city":"Antananarivo","postalCode":null,"state":null,"countryCode":"MG","phone":"+261 20 22 346 22","phoneUnformatted":"+261202234622","claimThisBusiness":true,"location":{"lat":-18.9030133,"lng":47.523898},"totalScore":3.9,"permanentlyClosed":false,"temporarilyClosed":false,"placeId":"ChIJLaIYC6qA8CERR2oyubDe5E8","categories":["Restaurant"],"fid":"0x21f080aa0b18a22d:0x4fe4deb0b9326a47","cid":"5756971074289035847","reviewsCount":15,"reviewsDistribution":{"oneStar":2,"twoStar":0,"threeStar":3,"fourStar":2,"fiveStar":8},"imagesCount":6,"imageCategories":[],"scrapedAt":"2025-05-08T04:05:28.516Z","googleFoodUrl":null,"hotelAds":[],"openingHours":[{"day":"Monday","hours":"9 AM to 8 PM"},{"day":"Tuesday","hours":"Closed"},{"day":"Wednesday","hours":"9 AM to 8 PM"},{"day":"Thursday","hours":"9 AM to 8 PM"},{"day":"Friday","hours":"9 AM to 8 PM"},{"day":"Saturday","hours":"9 AM to 8 PM"},{"day":"Sunday","hours":"7:30 AM to 8 PM"}],"peopleAlsoSearch":[],"placesTags":[],"reviewsTags":[],"additionalInfo":{"Service options":[{"Outdoor seating":true},{"Takeout":true},{"Dine-in":true}],"Highlights":[{"Great cocktails":true},{"Great coffee":true},{"Great dessert":true}],"Popular for":[{"Lunch":true},{"Dinner":true},{"Solo dining":true}],"Offerings":[{"Alcohol":true},{"Beer":true},{"Cocktails":true},{"Coffee":true},{"Hard liquor":true},{"Small plates":true},{"Wine":true}],"Dining options":[{"Lunch":true},{"Dinner":true},{"Dessert":true},{"Seating":true}],"Amenities":[{"Restroom":true}],"Atmosphere":[{"Casual":true},{"Cozy":true},{"Quiet":true}],"Crowd":[{"Groups":true},{"Tourists":true}],"Planning":[{"Accepts reservations":true}],"Children":[{"Good for kids":true}],"Parking":[{"Free street parking":true}]},"gasPrices":[],"url":"https://www.google.com/maps/search/?api=1&query=Pan%20Asia&query_place_id=ChIJLaIYC6qA8CERR2oyubDe5E8","searchPageUrl":"https://www.google.com/maps/search/restaurant%20chinois%20/@-18.901881102343836,47.53417819367214,16z?hl=en","searchString":"restaurant chinois ","language":"en","rank":41,"isAdvertisement":false,"imageUrl":"https://lh3.googleusercontent.com/gps-cs-s/AC9h4no3imBxn3-T6O31yedLxMp5hobIzaJw9AGgJTvlg3JseJj-Omr2fIqIDM3P-jzDYeHy5_d_DPO0QYHSzWFnWME6nuNtxBwEeX-L9AbpYVoRIqUSZxnlTfJy4VXCBGqnRsyAjZY8=w408-h544-k-no","kgmid":"/g/12ll4rm78"},{"title":"L' Arrivage","price":null,"categoryName":"Restaurant","address":"4 chemins, Antananarivo, Madagascar","neighborhood":"Soarano","street":"4 chemins","city":"Antananarivo","postalCode":null,"state":null,"countryCode":"MG","phone":"+261 32 05 728 24","phoneUnformatted":"+261320572824","claimThisBusiness":false,"location":{"lat":-18.9069105,"lng":47.5280084},"totalScore":4.7,"permanentlyClosed":false,"temporarilyClosed":false,"placeId":"ChIJ53q8JP598CERvYeYcxozdiI","categories":["Restaurant"],"fid":"0x21f07dfe24bc7ae7:0x2276331a739887bd","cid":"2483228433242949565","reviewsCount":138,"reviewsDistribution":{"oneStar":2,"twoStar":1,"threeStar":7,"fourStar":23,"fiveStar":105},"imagesCount":171,"imageCategories":[],"scrapedAt":"2025-05-08T04:05:28.516Z","googleFoodUrl":null,"hotelAds":[],"openingHours":[{"day":"Monday","hours":"9 AM to 10 PM"},{"day":"Tuesday","hours":"9 AM to 10 PM"},{"day":"Wednesday","hours":"9 AM to 10 PM"},{"day":"Thursday","hours":"9 AM to 10 PM"},{"day":"Friday","hours":"9 AM to 10 PM"},{"day":"Saturday","hours":"9 AM to 10 PM"},{"day":"Sunday","hours":"9 AM to 10 PM"}],"peopleAlsoSearch":[],"placesTags":[],"reviewsTags":[],"additionalInfo":{"Service options":[{"Outdoor seating":true},{"Delivery":true},{"Takeout":true},{"Dine-in":true}],"Highlights":[{"Fireplace":true},{"Great beer selection":true},{"Great cocktails":true},{"Great coffee":true},{"Great dessert":true},{"Great tea selection":true},{"Great wine list":true},{"Live music":true}],"Popular for":[{"Breakfast":true},{"Lunch":true},{"Dinner":true},{"Solo dining":true}],"Accessibility":[{"Wheelchair accessible entrance":true},{"Wheelchair accessible parking lot":true},{"Wheelchair accessible restroom":true},{"Wheelchair accessible seating":true}],"Offerings":[{"Alcohol":true},{"Beer":true},{"Cocktails":true},{"Coffee":true},{"Hard liquor":true},{"Quick bite":true},{"Small plates":true},{"Vegan options":true},{"Vegetarian options":true},{"Wine":true}],"Dining options":[{"Breakfast":true},{"Lunch":true},{"Dinner":true},{"Catering":true},{"Dessert":true},{"Seating":true}],"Amenities":[{"Bar onsite":true},{"Restroom":true}],"Atmosphere":[{"Casual":true},{"Cozy":true},{"Quiet":true},{"Romantic":true},{"Trendy":true},{"Upscale":true}],"Crowd":[{"College students":true},{"Groups":true},{"Tourists":true}],"Planning":[{"Accepts reservations":true}],"Children":[{"Good for kids":true},{"Good for kids birthday":true},{"High chairs":true},{"Kids' menu":true}],"Parking":[{"Free parking lot":true},{"Free street parking":true},null]},"gasPrices":[],"url":"https://www.google.com/maps/search/?api=1&query=L'%20Arrivage&query_place_id=ChIJ53q8JP598CERvYeYcxozdiI","searchPageUrl":"https://www.google.com/maps/search/restaurant%20chinois%20/@-18.901881102343836,47.53417819367214,16z?hl=en","searchString":"restaurant chinois ","language":"en","rank":42,"isAdvertisement":false,"imageUrl":"https://lh3.googleusercontent.com/gps-cs-s/AC9h4nrXXAMxeXH_A4oE2oYFej2LGhnEKa_qb0zTIls5MYA0RgA-w_rd5U4ODg2B6xEjA5nCLZXV-o_LoZWFaLTs-MWsShZWx2ulSS7jUkF8Zin4J16CDJ35crKuTmokfZcvH3W8G9ubTQ=w408-h306-k-no","kgmid":"/g/11f54r341n"},{"title":"Restaurant Kim-Long","price":null,"categoryName":"Restaurant","address":"3GWG+62H, Antananarivo, Madagascar","neighborhood":null,"street":"3GWG+62H","city":"Antananarivo","postalCode":null,"state":null,"countryCode":"MG","claimThisBusiness":true,"location":{"lat":-18.9045123,"lng":47.525132},"permanentlyClosed":false,"temporarilyClosed":false,"placeId":"ChIJQZ5LIAB_8CERihiPfn6m8MA","categories":["Restaurant"],"fid":"0x21f07f00204b9e41:0xc0f0a67e7e8f188a","cid":"13902795111912118410","reviewsCount":0,"imagesCount":null,"imageCategories":[],"scrapedAt":"2025-05-08T04:05:28.517Z","googleFoodUrl":null,"hotelAds":[],"openingHours":[],"peopleAlsoSearch":[],"placesTags":[],"reviewsTags":[],"additionalInfo":{"Service options":[{"Dine-in":true}],"Popular for":[{"Solo dining":true}],"Dining options":[{"Lunch":true}],"Amenities":[{"Restroom":true}],"Atmosphere":[{"Cozy":true}],"Crowd":[{"Groups":true}],"Children":[{"Good for kids":true}]},"gasPrices":[],"url":"https://www.google.com/maps/search/?api=1&query=Restaurant%20Kim-Long&query_place_id=ChIJQZ5LIAB_8CERihiPfn6m8MA","searchPageUrl":"https://www.google.com/maps/search/restaurant%20chinois%20/@-18.901881102343836,47.53417819367214,16z?hl=en","searchString":"restaurant chinois ","language":"en","rank":43,"isAdvertisement":false,"kgmid":"/g/11whyrl3q8"},{"title":"Bon Appetit","price":null,"categoryName":"Restaurant","address":"3GRP+P6M, Lalana Pastora Rabeony Hans, Antananarivo, Madagascar","neighborhood":"Soarano","street":"3GRP+P6M, Lalana Pastora Rabeony Hans","city":"Antananarivo","postalCode":null,"state":null,"countryCode":"MG","claimThisBusiness":true,"location":{"lat":-18.9081663,"lng":47.5355565},"totalScore":4.3,"permanentlyClosed":false,"temporarilyClosed":false,"placeId":"ChIJA1zzTfh98CERolUODr7mQ9c","categories":["Restaurant"],"fid":"0x21f07df84df35c03:0xd743e6be0e0e55a2","cid":"15511495245548115362","reviewsCount":3,"reviewsDistribution":{"oneStar":0,"twoStar":0,"threeStar":0,"fourStar":2,"fiveStar":1},"imagesCount":6,"imageCategories":[],"scrapedAt":"2025-05-08T04:05:28.517Z","googleFoodUrl":null,"hotelAds":[],"openingHours":[],"peopleAlsoSearch":[],"placesTags":[],"reviewsTags":[],"additionalInfo":{"Service options":[{"Takeout":true},{"Dine-in":true}],"Highlights":[{"Great coffee":true}],"Popular for":[{"Dinner":true},{"Solo dining":true}],"Offerings":[{"Alcohol":true},{"Beer":true},{"Coffee":true},{"Small plates":true}],"Dining options":[{"Lunch":true},{"Dinner":true},{"Dessert":true}],"Amenities":[{"Restroom":true}],"Atmosphere":[{"Casual":true},{"Cozy":true}],"Crowd":[{"Groups":true},{"Tourists":true}],"Planning":[{"Accepts reservations":true}],"Children":[{"Good for kids":true}]},"gasPrices":[],"url":"https://www.google.com/maps/search/?api=1&query=Bon%20Appetit&query_place_id=ChIJA1zzTfh98CERolUODr7mQ9c","searchPageUrl":"https://www.google.com/maps/search/restaurant%20chinois%20/@-18.901881102343836,47.53417819367214,16z?hl=en","searchString":"restaurant chinois ","language":"en","rank":44,"isAdvertisement":false,"imageUrl":"https://lh3.googleusercontent.com/gps-cs-s/AC9h4novluzkl6NwJQLaiUYRgi19r-rrB5aA_nRy6kzpvKo-_Y405So4Zyi5xA6QgP8UBEQN35P3i2v0DFctiBlwQRx9oVhFFaqLmbCq1Tpaj3v4-He6Lzk4rQvLUia0hB4E1QLltOGo=w426-h240-k-no","kgmid":"/g/11g8krq0dn"},{"title":"中景餐厅（Chinese food )","price":null,"categoryName":"Restaurant","address":"Madagascar, Antananarivo, MG Antananarivo Ananakely","neighborhood":null,"street":"MG Antananarivo Ananakely","city":"Antananarivo","postalCode":null,"state":null,"countryCode":"MG","phone":"+261 38 06 013 91","phoneUnformatted":"+261380601391","claimThisBusiness":false,"location":{"lat":-18.9060894,"lng":47.5247789},"permanentlyClosed":false,"temporarilyClosed":false,"placeId":"ChIJrS0qY-t_8CER28o4-KtR73c","categories":["Restaurant"],"fid":"0x21f07feb632a2dad:0x77ef51abf838cadb","cid":"8642216008993000155","reviewsCount":0,"imagesCount":10,"imageCategories":[],"scrapedAt":"2025-05-08T04:05:28.517Z","googleFoodUrl":null,"hotelAds":[],"openingHours":[],"peopleAlsoSearch":[],"placesTags":[],"reviewsTags":[],"additionalInfo":{"Service options":[{"Curbside pickup":true},{"Delivery":true},{"Drive-through":true},{"Takeout":true},{"Dine-in":true}],"Popular for":[{"Solo dining":true}],"Offerings":[{"Small plates":true}],"Dining options":[{"Lunch":true}],"Amenities":[{"Restroom":true}],"Atmosphere":[{"Casual":true},{"Cozy":true}],"Crowd":[{"Groups":true},{"Tourists":true}],"Children":[{"Good for kids":true}]},"gasPrices":[],"url":"https://www.google.com/maps/search/?api=1&query=%E4%B8%AD%E6%99%AF%E9%A4%90%E5%8E%85%EF%BC%88Chinese%20food%20)&query_place_id=ChIJrS0qY-t_8CER28o4-KtR73c","searchPageUrl":"https://www.google.com/maps/search/restaurant%20chinois%20/@-18.901881102343836,47.53417819367214,16z?hl=en","searchString":"restaurant chinois ","language":"en","rank":45,"isAdvertisement":false,"imageUrl":"https://lh3.googleusercontent.com/p/AF1QipOgtEeHQFRWrhey9zhdkoe3lPs4DskN2jX3dkSz=w408-h725-k-no","kgmid":"/g/11vyv5bnf3"}]